[
  [
    180,
    {
      "name": "Aruba",
      "isAPlace": true,
      "bounds": {
        "northeast": {
          "lat": 12.6306179,
          "lng": -69.8644638
        },
        "southwest": {
          "lat": 12.406093,
          "lng": -70.070114
        }
      }
    }
  ],
  [
    652230,
    {
      "name": "Islamic Republic of Afghanistan",
      "isAPlace": true,
      "bounds": {
        "northeast": {
          "lat": 38.49087670000001,
          "lng": 74.8898619
        },
        "southwest": {
          "lat": 29.3772,
          "lng": 60.5170005
        }
      }
    }
  ],
  [
    1246700,
    {
      "name": "Republic of Angola",
      "isAPlace": true,
      "bounds": {
        "northeast": {
          "lat": -4.3879439,
          "lng": 24.0878855
        },
        "southwest": {
          "lat": -18.0391039,
          "lng": 11.4696999
        }
      }
    }
  ],
  [
    91,
    {
      "name": "Anguilla",
      "isAPlace": true,
      "bounds": {
        "northeast": {
          "lat": 18.6332326,
          "lng": -62.91999999999999
        },
        "southwest": {
          "lat": 18.1465043,
          "lng": -63.4803
        }
      }
    }
  ],
  [
    1580,
    {
      "name": "Åland Islands",
      "isAPlace": true
    }
  ],
  [
    28748,
    {
      "name": "Republic of Albania",
      "isAPlace": true,
      "bounds": {
        "northeast": {
          "lat": 42.6610819,
          "lng": 21.0572394
        },
        "southwest": {
          "lat": 39.6447296,
          "lng": 19.1217
        }
      }
    }
  ],
  [
    468,
    {
      "name": "Principality of Andorra",
      "isAPlace": true,
      "bounds": {
        "northeast": {
          "lat": 42.655791,
          "lng": 1.786639
        },
        "southwest": {
          "lat": 42.4287488,
          "lng": 1.4087052
        }
      }
    }
  ],
  [
    83600,
    {
      "name": "United Arab Emirates",
      "isAPlace": true,
      "bounds": {
        "northeast": {
          "lat": 26.0765,
          "lng": 56.4395001
        },
        "southwest": {
          "lat": 22.6315138,
          "lng": 51.4723
        }
      }
    }
  ],
  [
    2780400,
    {
      "name": "Argentine Republic",
      "isAPlace": true,
      "bounds": {
        "northeast": {
          "lat": -21.7810459,
          "lng": -53.637481
        },
        "southwest": {
          "lat": -55.1250224,
          "lng": -73.5603601
        }
      }
    }
  ],
  [
    29743,
    {
      "name": "Republic of Armenia",
      "isAPlace": true,
      "bounds": {
        "northeast": {
          "lat": 41.300993,
          "lng": 46.634222
        },
        "southwest": {
          "lat": 38.840244,
          "lng": 43.4472601
        }
      }
    }
  ],
  [
    199,
    {
      "name": "American Samoa",
      "isAPlace": true,
      "bounds": {
        "northeast": {
          "lat": -13.4056506,
          "lng": -169.2059326
        },
        "southwest": {
          "lat": -14.7217608,
          "lng": -171.0076904
        }
      }
    }
  ],
  [
    14000000,
    {
      "name": "Antarctica",
      "isAPlace": true,
      "bounds": {
        "northeast": {
          "lat": -60.1086999,
          "lng": 180
        },
        "southwest": {
          "lat": -90,
          "lng": -180
        }
      }
    }
  ],
  [
    7747,
    {
      "name": "Territory of the French Southern and Antarctic Lands",
      "isAPlace": true,
      "bounds": {
        "northeast": {
          "lat": -48.4036793,
          "lng": 70.6558228
        },
        "southwest": {
          "lat": -50.0641918,
          "lng": 68.4832763
        }
      }
    }
  ],
  [
    442,
    {
      "name": "Antigua and Barbuda",
      "isAPlace": true,
      "bounds": {
        "northeast": {
          "lat": 17.7499946,
          "lng": -61.6394
        },
        "southwest": {
          "lat": 16.9018,
          "lng": -62.38100009999999
        }
      }
    }
  ],
  [
    7692024,
    {
      "name": "Commonwealth of Australia",
      "isAPlace": true,
      "bounds": {
        "northeast": {
          "lat": -9.187026399999999,
          "lng": 159.2872223
        },
        "southwest": {
          "lat": -54.83376579999999,
          "lng": 110.9510339
        }
      }
    }
  ],
  [
    83871,
    {
      "name": "Republic of Austria",
      "isAPlace": true,
      "bounds": {
        "northeast": {
          "lat": 49.0206081,
          "lng": 17.1606861
        },
        "southwest": {
          "lat": 46.37233579999999,
          "lng": 9.530783399999999
        }
      }
    }
  ],
  [
    86600,
    {
      "name": "Republic of Azerbaijan",
      "isAPlace": true,
      "bounds": {
        "northeast": {
          "lat": 41.9594999,
          "lng": 50.7458001
        },
        "southwest": {
          "lat": 38.3922171,
          "lng": 44.7632599
        }
      }
    }
  ],
  [
    27834,
    {
      "name": "Republic of Burundi",
      "isAPlace": true,
      "bounds": {
        "northeast": {
          "lat": -2.3097302,
          "lng": 30.8495447
        },
        "southwest": {
          "lat": -4.4693288,
          "lng": 29.000993
        }
      }
    }
  ],
  [
    30528,
    {
      "name": "Kingdom of Belgium",
      "isAPlace": true,
      "bounds": {
        "northeast": {
          "lat": 51.5051449,
          "lng": 6.408124099999999
        },
        "southwest": {
          "lat": 49.497013,
          "lng": 2.5240999
        }
      }
    }
  ],
  [
    112622,
    {
      "name": "Republic of Benin",
      "isAPlace": true,
      "bounds": {
        "northeast": {
          "lat": 12.4086111,
          "lng": 3.8433429
        },
        "southwest": {
          "lat": 6.2061001,
          "lng": 0.7765055
        }
      }
    }
  ],
  [
    272967,
    {
      "name": "Burkina Faso",
      "isAPlace": true,
      "bounds": {
        "northeast": {
          "lat": 15.0840032,
          "lng": 2.4043598
        },
        "southwest": {
          "lat": 9.4104719,
          "lng": -5.5157196
        }
      }
    }
  ],
  [
    147570,
    {
      "name": "People's Republic of Bangladesh",
      "isAPlace": true,
      "bounds": {
        "northeast": {
          "lat": 26.633914,
          "lng": 92.6801153
        },
        "southwest": {
          "lat": 20.6173999,
          "lng": 88.00861410000002
        }
      }
    }
  ],
  [
    110879,
    {
      "name": "Republic of Bulgaria",
      "isAPlace": true,
      "bounds": {
        "northeast": {
          "lat": 44.2152333,
          "lng": 28.7292001
        },
        "southwest": {
          "lat": 41.2354469,
          "lng": 22.3573446
        }
      }
    }
  ],
  [
    765,
    {
      "name": "Kingdom of Bahrain",
      "isAPlace": true,
      "bounds": {
        "northeast": {
          "lat": 26.3315761,
          "lng": 50.8509064
        },
        "southwest": {
          "lat": 25.5349999,
          "lng": 50.3448485
        }
      }
    }
  ],
  [
    13943,
    {
      "name": "Commonwealth of the Bahamas",
      "isAPlace": true,
      "bounds": {
        "northeast": {
          "lat": 27.263412,
          "lng": -72.70975390000001
        },
        "southwest": {
          "lat": 20.9082735,
          "lng": -80.4775603
        }
      }
    }
  ],
  [
    51209,
    {
      "name": "Bosnia and Herzegovina",
      "isAPlace": true,
      "bounds": {
        "northeast": {
          "lat": 45.2766262,
          "lng": 19.621935
        },
        "southwest": {
          "lat": 42.5564516,
          "lng": 15.7223665
        }
      }
    }
  ],
  [
    21,
    {
      "name": "Collectivity of Saint Barthélemy",
      "isAPlace": true
    }
  ],
  [
    207600,
    {
      "name": "Republic of Belarus",
      "isAPlace": true,
      "bounds": {
        "northeast": {
          "lat": 56.1718719,
          "lng": 32.7768202
        },
        "southwest": {
          "lat": 51.26201100000001,
          "lng": 23.1783377
        }
      }
    }
  ],
  [
    22966,
    {
      "name": "Belize",
      "isAPlace": true,
      "bounds": {
        "northeast": {
          "lat": 18.4959419,
          "lng": -87.41269989999999
        },
        "southwest": {
          "lat": 15.8856189,
          "lng": -89.22758789999999
        }
      }
    }
  ],
  [
    54,
    {
      "name": "Bermuda",
      "isAPlace": true,
      "bounds": {
        "northeast": {
          "lat": 32.3961,
          "lng": -64.6413999
        },
        "southwest": {
          "lat": 32.2424975,
          "lng": -64.89139999999999
        }
      }
    }
  ],
  [
    1098581,
    {
      "name": "Plurinational State of Bolivia",
      "isAPlace": true,
      "bounds": {
        "northeast": {
          "lat": -9.669323,
          "lng": -57.453803
        },
        "southwest": {
          "lat": -22.8980899,
          "lng": -69.64498999999999
        }
      }
    }
  ],
  [
    8515767,
    {
      "name": "Federative Republic of Brazil",
      "isAPlace": true,
      "bounds": {
        "northeast": {
          "lat": 5.2717863,
          "lng": -29.3434
        },
        "southwest": {
          "lat": -34.0891,
          "lng": -73.982817
        }
      }
    }
  ],
  [
    430,
    {
      "name": "Barbados",
      "isAPlace": true,
      "bounds": {
        "northeast": {
          "lat": 13.3365093,
          "lng": -59.4174957
        },
        "southwest": {
          "lat": 13.039844,
          "lng": -59.6530151
        }
      }
    }
  ],
  [
    5765,
    {
      "name": "Nation of Brunei, Abode of Peace",
      "isAPlace": true,
      "bounds": {
        "northeast": {
          "lat": 5.0978001,
          "lng": 115.3639552
        },
        "southwest": {
          "lat": 4.002460999999999,
          "lng": 114.0752
        }
      }
    }
  ],
  [
    38394,
    {
      "name": "Kingdom of Bhutan",
      "isAPlace": true,
      "bounds": {
        "northeast": {
          "lat": 28.360825,
          "lng": 92.12523209999999
        },
        "southwest": {
          "lat": 26.702016,
          "lng": 88.74647350000001
        }
      }
    }
  ],
  [
    49,
    {
      "name": "Bouvet Island",
      "isAPlace": true,
      "bounds": {
        "northeast": {
          "lat": -54.38735519999999,
          "lng": 3.4382056
        },
        "southwest": {
          "lat": -54.4592623,
          "lng": 3.2773591
        }
      }
    }
  ],
  [
    582000,
    {
      "name": "Republic of Botswana",
      "isAPlace": true,
      "bounds": {
        "northeast": {
          "lat": -17.778137,
          "lng": 29.375304
        },
        "southwest": {
          "lat": -26.907545,
          "lng": 19.998903
        }
      }
    }
  ],
  [
    622984,
    {
      "name": "Central African Republic",
      "isAPlace": true,
      "bounds": {
        "northeast": {
          "lat": 11.0179569,
          "lng": 27.4583049
        },
        "southwest": {
          "lat": 2.2208493,
          "lng": 14.4150981
        }
      }
    }
  ],
  [
    9984670,
    {
      "name": "Canada",
      "isAPlace": true,
      "bounds": {
        "northeast": {
          "lat": 83.6381,
          "lng": -50.9766
        },
        "southwest": {
          "lat": 41.6765559,
          "lng": -141.00187
        }
      }
    }
  ],
  [
    14,
    {
      "name": "Territory of the Cocos (Keeling) Islands",
      "isAPlace": true,
      "bounds": {
        "northeast": {
          "lat": -11.819973,
          "lng": 96.93271639999999
        },
        "southwest": {
          "lat": -12.2118513,
          "lng": 96.8134118
        }
      }
    }
  ],
  [
    41284,
    {
      "name": "Swiss Confederation",
      "isAPlace": true,
      "bounds": {
        "northeast": {
          "lat": 47.8084546,
          "lng": 10.4923401
        },
        "southwest": {
          "lat": 45.81792,
          "lng": 5.95608
        }
      }
    }
  ],
  [
    756102,
    {
      "name": "Republic of Chile",
      "isAPlace": true,
      "bounds": {
        "northeast": {
          "lat": -17.4983293,
          "lng": -66.3327
        },
        "southwest": {
          "lat": -56.1455,
          "lng": -110.0281
        }
      }
    }
  ],
  [
    9706961,
    {
      "name": "People's Republic of China",
      "isAPlace": true,
      "bounds": {
        "northeast": {
          "lat": 53.56097399999999,
          "lng": 134.7728099
        },
        "southwest": {
          "lat": 17.9996,
          "lng": 73.4994136
        }
      }
    }
  ],
  [
    322463,
    {
      "name": "Republic of Côte d'Ivoire",
      "isAPlace": true
    }
  ],
  [
    475442,
    {
      "name": "Republic of Cameroon",
      "isAPlace": true,
      "bounds": {
        "northeast": {
          "lat": 13.083335,
          "lng": 16.1944081
        },
        "southwest": {
          "lat": 1.6559,
          "lng": 8.3936001
        }
      }
    }
  ],
  [
    2344858,
    {
      "name": "Democratic Republic of the Congo",
      "isAPlace": true,
      "bounds": {
        "northeast": {
          "lat": 3.707791,
          "lng": 18.643611
        },
        "southwest": {
          "lat": -5.0964,
          "lng": 11.1182001
        }
      }
    }
  ],
  [
    342000,
    {
      "name": "Republic of the Congo",
      "isAPlace": true,
      "bounds": {
        "northeast": {
          "lat": 3.707791,
          "lng": 18.643611
        },
        "southwest": {
          "lat": -5.0964,
          "lng": 11.1182001
        }
      }
    }
  ],
  [
    236,
    {
      "name": "Cook Islands",
      "isAPlace": true,
      "bounds": {
        "northeast": {
          "lat": -8.1679932,
          "lng": -155.6982422
        },
        "southwest": {
          "lat": -23.0898384,
          "lng": -166.1791992
        }
      }
    }
  ],
  [
    1141748,
    {
      "name": "Republic of Colombia",
      "isAPlace": true,
      "bounds": {
        "northeast": {
          "lat": 13.5177999,
          "lng": -66.851923
        },
        "southwest": {
          "lat": -4.22711,
          "lng": -81.8317
        }
      }
    }
  ],
  [
    1862,
    {
      "name": "Union of the Comoros",
      "isAPlace": true,
      "bounds": {
        "northeast": {
          "lat": -11.3373321,
          "lng": 44.5646666
        },
        "southwest": {
          "lat": -12.4687602,
          "lng": 43.1968689
        }
      }
    }
  ],
  [
    4033,
    {
      "name": "Republic of Cabo Verde",
      "isAPlace": true,
      "bounds": {
        "northeast": {
          "lat": 17.3191764,
          "lng": -22.5933839
        },
        "southwest": {
          "lat": 14.7270733,
          "lng": -25.383911
        }
      }
    }
  ],
  [
    51100,
    {
      "name": "Republic of Costa Rica",
      "isAPlace": true,
      "bounds": {
        "northeast": {
          "lat": 11.2196808,
          "lng": -82.51830009999999
        },
        "southwest": {
          "lat": 5.496099999999999,
          "lng": -87.09899999999999
        }
      }
    }
  ],
  [
    109884,
    {
      "name": "Republic of Cuba",
      "isAPlace": true,
      "bounds": {
        "northeast": {
          "lat": 23.3776001,
          "lng": -73.9545
        },
        "southwest": {
          "lat": 19.6529001,
          "lng": -85.1715001
        }
      }
    }
  ],
  [
    444,
    {
      "name": "Country of Curaçao",
      "isAPlace": true
    }
  ],
  [
    135,
    {
      "name": "Territory of Christmas Island",
      "isAPlace": true,
      "bounds": {
        "northeast": {
          "lat": -10.412352,
          "lng": 105.7129382
        },
        "southwest": {
          "lat": -10.5703619,
          "lng": 105.5333161
        }
      }
    }
  ],
  [
    264,
    {
      "name": "Cayman Islands",
      "isAPlace": true,
      "bounds": {
        "northeast": {
          "lat": 19.7616,
          "lng": -79.7191
        },
        "southwest": {
          "lat": 19.2538999,
          "lng": -81.42940010000001
        }
      }
    }
  ],
  [
    9251,
    {
      "name": "Republic of Cyprus",
      "isAPlace": true,
      "bounds": {
        "northeast": {
          "lat": 35.7071999,
          "lng": 34.60450000000001
        },
        "southwest": {
          "lat": 34.6304001,
          "lng": 32.2459
        }
      }
    }
  ],
  [
    78865,
    {
      "name": "Czech Republic",
      "isAPlace": true,
      "bounds": {
        "northeast": {
          "lat": 51.0557185,
          "lng": 18.8592361
        },
        "southwest": {
          "lat": 48.5518081,
          "lng": 12.090589
        }
      }
    }
  ],
  [
    357114,
    {
      "name": "Federal Republic of Germany",
      "isAPlace": true,
      "bounds": {
        "northeast": {
          "lat": 55.0815,
          "lng": 15.0418962
        },
        "southwest": {
          "lat": 47.2701115,
          "lng": 5.8663425
        }
      }
    }
  ],
  [
    23200,
    {
      "name": "Republic of Djibouti",
      "isAPlace": true,
      "bounds": {
        "northeast": {
          "lat": 12.7136973,
          "lng": 43.4839
        },
        "southwest": {
          "lat": 10.9319439,
          "lng": 41.759722
        }
      }
    }
  ],
  [
    751,
    {
      "name": "Commonwealth of Dominica",
      "isAPlace": true,
      "bounds": {
        "northeast": {
          "lat": 15.6485199,
          "lng": -61.23090180000001
        },
        "southwest": {
          "lat": 15.2042266,
          "lng": -61.484108
        }
      }
    }
  ],
  [
    43094,
    {
      "name": "Kingdom of Denmark",
      "isAPlace": true,
      "bounds": {
        "northeast": {
          "lat": 58.02846,
          "lng": 15.2298
        },
        "southwest": {
          "lat": 54.4317001,
          "lng": 7.855200099999999
        }
      }
    }
  ],
  [
    48671,
    {
      "name": "Dominican Republic",
      "isAPlace": true,
      "bounds": {
        "northeast": {
          "lat": 19.9786989,
          "lng": -68.25260010000001
        },
        "southwest": {
          "lat": 17.3611001,
          "lng": -72.0075099
        }
      }
    }
  ],
  [
    2381741,
    {
      "name": "People's Democratic Republic of Algeria",
      "isAPlace": true,
      "bounds": {
        "northeast": {
          "lat": 37.2216,
          "lng": 11.999999
        },
        "southwest": {
          "lat": 18.968147,
          "lng": -8.667611299999999
        }
      }
    }
  ],
  [
    276841,
    {
      "name": "Republic of Ecuador",
      "isAPlace": true,
      "bounds": {
        "northeast": {
          "lat": 2.2955,
          "lng": -75.188794
        },
        "southwest": {
          "lat": -5.0143511,
          "lng": -92.60379999999999
        }
      }
    }
  ],
  [
    1002450,
    {
      "name": "Arab Republic of Egypt",
      "isAPlace": true,
      "bounds": {
        "northeast": {
          "lat": 31.8122,
          "lng": 37.0569
        },
        "southwest": {
          "lat": 21.9999999,
          "lng": 24.696775
        }
      }
    }
  ],
  [
    117600,
    {
      "name": "State of Eritrea",
      "isAPlace": true,
      "bounds": {
        "northeast": {
          "lat": 18.0204137,
          "lng": 43.2312
        },
        "southwest": {
          "lat": 12.354723,
          "lng": 36.433348
        }
      }
    }
  ],
  [
    266000,
    {
      "name": "Sahrawi Arab Democratic Republic",
      "isAPlace": true
    }
  ],
  [
    505992,
    {
      "name": "Kingdom of Spain",
      "isAPlace": true,
      "bounds": {
        "northeast": {
          "lat": 43.8504,
          "lng": 4.6362
        },
        "southwest": {
          "lat": 27.4985,
          "lng": -18.2648001
        }
      }
    }
  ],
  [
    45227,
    {
      "name": "Republic of Estonia",
      "isAPlace": true,
      "bounds": {
        "northeast": {
          "lat": 59.7315,
          "lng": 28.2101389
        },
        "southwest": {
          "lat": 57.50931600000001,
          "lng": 21.6540999
        }
      }
    }
  ],
  [
    1104300,
    {
      "name": "Federal Democratic Republic of Ethiopia",
      "isAPlace": true,
      "bounds": {
        "northeast": {
          "lat": 14.8942141,
          "lng": 48.0010561
        },
        "southwest": {
          "lat": 3.4041369,
          "lng": 32.997734
        }
      }
    }
  ],
  [
    338424,
    {
      "name": "Republic of Finland",
      "isAPlace": true,
      "bounds": {
        "northeast": {
          "lat": 70.0922932,
          "lng": 31.5870999
        },
        "southwest": {
          "lat": 59.693623,
          "lng": 20.4565003
        }
      }
    }
  ],
  [
    18272,
    {
      "name": "Republic of Fiji",
      "isAPlace": true,
      "bounds": {
        "northeast": {
          "lat": -12.2084957,
          "lng": -177.8686523
        },
        "southwest": {
          "lat": -20.8998713,
          "lng": 176.7919922
        }
      }
    }
  ],
  [
    12173,
    {
      "name": "Falkland Islands",
      "isAPlace": true,
      "bounds": {
        "northeast": {
          "lat": -50.9809115,
          "lng": -57.6768495
        },
        "southwest": {
          "lat": -52.4744161,
          "lng": -61.379242
        }
      }
    }
  ],
  [
    551695,
    {
      "name": "French Republic",
      "isAPlace": true,
      "bounds": {
        "northeast": {
          "lat": 29.9967252,
          "lng": -90.0694269
        },
        "southwest": {
          "lat": 29.9801289,
          "lng": -90.071281
        }
      }
    }
  ],
  [
    1393,
    {
      "name": "Faroe Islands",
      "isAPlace": true,
      "bounds": {
        "northeast": {
          "lat": 62.4310742,
          "lng": -6.190795899999999
        },
        "southwest": {
          "lat": 61.3677776,
          "lng": -7.717895500000001
        }
      }
    }
  ],
  [
    702,
    {
      "name": "Federated States of Micronesia",
      "isAPlace": true,
      "bounds": {
        "northeast": {
          "lat": 10.2770863,
          "lng": 163.5177612
        },
        "southwest": {
          "lat": 0.1538084,
          "lng": 136.9226075
        }
      }
    }
  ],
  [
    267668,
    {
      "name": "Gabonese Republic",
      "isAPlace": true,
      "bounds": {
        "northeast": {
          "lat": 2.318109,
          "lng": 14.5269234
        },
        "southwest": {
          "lat": -4.1656,
          "lng": 8.421
        }
      }
    }
  ],
  [
    242900,
    {
      "name": "United Kingdom of Great Britain and Northern Ireland",
      "isAPlace": true,
      "bounds": {
        "northeast": {
          "lat": 55.31294,
          "lng": -5.4267901
        },
        "southwest": {
          "lat": 54.02260990000001,
          "lng": -8.17754
        }
      }
    }
  ],
  [
    69700,
    {
      "name": "Georgia",
      "isAPlace": true,
      "bounds": {
        "northeast": {
          "lat": 35.0006589,
          "lng": -80.751429
        },
        "southwest": {
          "lat": 30.3555908,
          "lng": -85.6051649
        }
      }
    }
  ],
  [
    78,
    {
      "name": "Bailiwick of Guernsey",
      "isAPlace": true,
      "bounds": {
        "northeast": {
          "lat": 49.7345001,
          "lng": -2.1563
        },
        "southwest": {
          "lat": 49.3969001,
          "lng": -2.6831001
        }
      }
    }
  ],
  [
    238533,
    {
      "name": "Republic of Ghana",
      "isAPlace": true,
      "bounds": {
        "northeast": {
          "lat": 11.175031,
          "lng": 1.199972
        },
        "southwest": {
          "lat": 4.6339001,
          "lng": -3.260786
        }
      }
    }
  ],
  [
    6,
    {
      "name": "Gibraltar",
      "isAPlace": true,
      "bounds": {
        "northeast": {
          "lat": 36.1551188,
          "lng": -5.334499999999999
        },
        "southwest": {
          "lat": 36.1038999,
          "lng": -5.3721
        }
      }
    }
  ],
  [
    245857,
    {
      "name": "Republic of Guinea",
      "isAPlace": true,
      "bounds": {
        "northeast": {
          "lat": 12.6746159,
          "lng": -7.637853
        },
        "southwest": {
          "lat": 7.190909099999999,
          "lng": -15.282
        }
      }
    }
  ],
  [
    1628,
    {
      "name": "Guadeloupe",
      "isAPlace": true,
      "bounds": {
        "northeast": {
          "lat": 16.5572273,
          "lng": -60.9473
        },
        "southwest": {
          "lat": 15.742032,
          "lng": -61.8468
        }
      }
    }
  ],
  [
    10689,
    {
      "name": "Republic of the Gambia",
      "isAPlace": true,
      "bounds": {
        "northeast": {
          "lat": 13.8249497,
          "lng": -13.7928726
        },
        "southwest": {
          "lat": 13.0098999,
          "lng": -16.9464001
        }
      }
    }
  ],
  [
    36125,
    {
      "name": "Republic of Guinea-Bissau",
      "isAPlace": true,
      "bounds": {
        "northeast": {
          "lat": 12.6869468,
          "lng": -13.6265235
        },
        "southwest": {
          "lat": 10.7146,
          "lng": -16.9518999
        }
      }
    }
  ],
  [
    28051,
    {
      "name": "Republic of Equatorial Guinea",
      "isAPlace": true,
      "bounds": {
        "northeast": {
          "lat": 3.8355,
          "lng": 11.3333
        },
        "southwest": {
          "lat": -1.5475,
          "lng": 5.541900099999999
        }
      }
    }
  ],
  [
    131990,
    {
      "name": "Hellenic Republic",
      "isAPlace": true
    }
  ],
  [
    344,
    {
      "name": "Grenada",
      "isAPlace": true,
      "bounds": {
        "northeast": {
          "lat": 12.5367,
          "lng": -61.3746999
        },
        "southwest": {
          "lat": 11.9829051,
          "lng": -61.80589999999999
        }
      }
    }
  ],
  [
    2166086,
    {
      "name": "Greenland",
      "isAPlace": true,
      "bounds": {
        "northeast": {
          "lat": 83.97025599999999,
          "lng": -8.2617197
        },
        "southwest": {
          "lat": 58.26329,
          "lng": -73.8281197
        }
      }
    }
  ],
  [
    108889,
    {
      "name": "Republic of Guatemala",
      "isAPlace": true,
      "bounds": {
        "northeast": {
          "lat": 17.8156973,
          "lng": -88.1982001
        },
        "southwest": {
          "lat": 13.63,
          "lng": -92.2714
        }
      }
    }
  ],
  [
    83534,
    {
      "name": "Guiana",
      "isAPlace": true,
      "bounds": {
        "northeast": {
          "lat": 8.722199999999999,
          "lng": -56.49112
        },
        "southwest": {
          "lat": 1.164724,
          "lng": -61.414905
        }
      }
    }
  ],
  [
    549,
    {
      "name": "Guam",
      "isAPlace": true,
      "bounds": {
        "northeast": {
          "lat": 13.7994072,
          "lng": 145.112915
        },
        "southwest": {
          "lat": 13.1022175,
          "lng": 144.4647218
        }
      }
    }
  ],
  [
    214969,
    {
      "name": "Co-operative Republic of Guyana",
      "isAPlace": true,
      "bounds": {
        "northeast": {
          "lat": 8.722199999999999,
          "lng": -56.49112
        },
        "southwest": {
          "lat": 1.164724,
          "lng": -61.414905
        }
      }
    }
  ],
  [
    1104,
    {
      "name": "Hong Kong Special Administrative Region of the People's Republic of China",
      "isAPlace": true,
      "bounds": {
        "northeast": {
          "lat": 53.56097399999999,
          "lng": 134.7728099
        },
        "southwest": {
          "lat": 17.9996,
          "lng": 73.4994136
        }
      }
    }
  ],
  [
    412,
    {
      "name": "Heard Island and McDonald Islands",
      "isAPlace": true,
      "bounds": {
        "northeast": {
          "lat": -52.9609444,
          "lng": 73.7792016
        },
        "southwest": {
          "lat": -53.19168759999999,
          "lng": 73.25065599999999
        }
      }
    }
  ],
  [
    112492,
    {
      "name": "Republic of Honduras",
      "isAPlace": true,
      "bounds": {
        "northeast": {
          "lat": 17.4677999,
          "lng": -83.0621001
        },
        "southwest": {
          "lat": 12.9842246,
          "lng": -89.3564822
        }
      }
    }
  ],
  [
    56594,
    {
      "name": "Republic of Croatia",
      "isAPlace": true,
      "bounds": {
        "northeast": {
          "lat": 46.5549857,
          "lng": 19.4480523
        },
        "southwest": {
          "lat": 42.3385087,
          "lng": 13.3649
        }
      }
    }
  ],
  [
    27750,
    {
      "name": "Republic of Haiti",
      "isAPlace": true,
      "bounds": {
        "northeast": {
          "lat": 20.1282,
          "lng": -71.621754
        },
        "southwest": {
          "lat": 17.9422,
          "lng": -74.6082
        }
      }
    }
  ],
  [
    93028,
    {
      "name": "Hungary",
      "isAPlace": true,
      "bounds": {
        "northeast": {
          "lat": 48.585234,
          "lng": 22.8981217
        },
        "southwest": {
          "lat": 45.7370889,
          "lng": 16.1133077
        }
      }
    }
  ],
  [
    1904569,
    {
      "name": "Republic of Indonesia",
      "isAPlace": true,
      "bounds": {
        "northeast": {
          "lat": 6.216999899999999,
          "lng": 141.0425
        },
        "southwest": {
          "lat": -11.1082999,
          "lng": 94.7351
        }
      }
    }
  ],
  [
    572,
    {
      "name": "Isle of Man",
      "isAPlace": true,
      "bounds": {
        "northeast": {
          "lat": 54.418247,
          "lng": -4.308327999999999
        },
        "southwest": {
          "lat": 54.04463999999999,
          "lng": -4.8301808
        }
      }
    }
  ],
  [
    3287590,
    {
      "name": "Republic of India",
      "isAPlace": true,
      "bounds": {
        "northeast": {
          "lat": 35.5087008,
          "lng": 97.39535869999999
        },
        "southwest": {
          "lat": 6.4626999,
          "lng": 68.1097
        }
      }
    }
  ],
  [
    60,
    {
      "name": "British Indian Ocean Territory",
      "isAPlace": true,
      "bounds": {
        "northeast": {
          "lat": -5.1401857,
          "lng": 72.5880433
        },
        "southwest": {
          "lat": -7.4891118,
          "lng": 71.1859131
        }
      }
    }
  ],
  [
    70273,
    {
      "name": "Republic of Ireland",
      "isAPlace": true,
      "bounds": {
        "northeast": {
          "lat": 55.4602,
          "lng": -5.668900100000001
        },
        "southwest": {
          "lat": 51.3066,
          "lng": -10.7666001
        }
      }
    }
  ],
  [
    1648195,
    {
      "name": "Islamic Republic of Iran",
      "isAPlace": true,
      "bounds": {
        "northeast": {
          "lat": 39.782056,
          "lng": 63.3333366
        },
        "southwest": {
          "lat": 24.8066999,
          "lng": 44.0326949
        }
      }
    }
  ],
  [
    438317,
    {
      "name": "Republic of Iraq",
      "isAPlace": true,
      "bounds": {
        "northeast": {
          "lat": 37.380645,
          "lng": 48.6350999
        },
        "southwest": {
          "lat": 29.0612079,
          "lng": 38.7936029
        }
      }
    }
  ],
  [
    103000,
    {
      "name": "Iceland",
      "isAPlace": true,
      "bounds": {
        "northeast": {
          "lat": 67.2466,
          "lng": -12.2388001
        },
        "southwest": {
          "lat": 62.4819,
          "lng": -26.2572998
        }
      }
    }
  ],
  [
    20770,
    {
      "name": "State of Israel",
      "isAPlace": true,
      "bounds": {
        "northeast": {
          "lat": 33.33280500000001,
          "lng": 35.896244
        },
        "southwest": {
          "lat": 29.47969999999999,
          "lng": 34.2673871
        }
      }
    }
  ],
  [
    301336,
    {
      "name": "Italian Republic",
      "isAPlace": true
    }
  ],
  [
    10991,
    {
      "name": "Jamaica",
      "isAPlace": true,
      "bounds": {
        "northeast": {
          "lat": 18.5697821,
          "lng": -76.1448669
        },
        "southwest": {
          "lat": 17.6688854,
          "lng": -78.4073639
        }
      }
    }
  ],
  [
    116,
    {
      "name": "Bailiwick of Jersey",
      "isAPlace": true,
      "bounds": {
        "northeast": {
          "lat": 49.26650009999999,
          "lng": -2.0013001
        },
        "southwest": {
          "lat": 49.1582,
          "lng": -2.2602001
        }
      }
    }
  ],
  [
    89342,
    {
      "name": "Hashemite Kingdom of Jordan",
      "isAPlace": true,
      "bounds": {
        "northeast": {
          "lat": 33.3746878,
          "lng": 39.301154
        },
        "southwest": {
          "lat": 29.1850361,
          "lng": 34.9441001
        }
      }
    }
  ],
  [
    377930,
    {
      "name": "Japan",
      "isAPlace": true,
      "bounds": {
        "northeast": {
          "lat": 45.6412626,
          "lng": 154.0031455
        },
        "southwest": {
          "lat": 20.3585295,
          "lng": 122.8554688
        }
      }
    }
  ],
  [
    2724900,
    {
      "name": "Republic of Kazakhstan",
      "isAPlace": true,
      "bounds": {
        "northeast": {
          "lat": 55.4419839,
          "lng": 87.315415
        },
        "southwest": {
          "lat": 40.5685841,
          "lng": 46.4936719
        }
      }
    }
  ],
  [
    580367,
    {
      "name": "Republic of Kenya",
      "isAPlace": true,
      "bounds": {
        "northeast": {
          "lat": 5.033420899999999,
          "lng": 41.9068957
        },
        "southwest": {
          "lat": -4.724299999999999,
          "lng": 33.90982109999999
        }
      }
    }
  ],
  [
    199951,
    {
      "name": "Kyrgyz Republic",
      "isAPlace": true,
      "bounds": {
        "northeast": {
          "lat": 43.2653569,
          "lng": 80.2265594
        },
        "southwest": {
          "lat": 39.180254,
          "lng": 69.250998
        }
      }
    }
  ],
  [
    181035,
    {
      "name": "Kingdom of Cambodia",
      "isAPlace": true,
      "bounds": {
        "northeast": {
          "lat": 14.6901791,
          "lng": 107.627687
        },
        "southwest": {
          "lat": 9.6007,
          "lng": 102.333542
        }
      }
    }
  ],
  [
    811,
    {
      "name": "Independent and Sovereign Republic of Kiribati",
      "isAPlace": true,
      "bounds": {
        "northeast": {
          "lat": 5.4082108,
          "lng": -144.2285156
        },
        "southwest": {
          "lat": -14.0939572,
          "lng": 168.8818359
        }
      }
    }
  ],
  [
    261,
    {
      "name": "Federation of Saint Christopher and Nevisa",
      "isAPlace": true
    }
  ],
  [
    100210,
    {
      "name": "Republic of Korea",
      "isAPlace": true,
      "bounds": {
        "northeast": {
          "lat": 43.01159,
          "lng": 131.1603
        },
        "southwest": {
          "lat": 33.0041,
          "lng": 124.1718463
        }
      }
    }
  ],
  [
    10908,
    {
      "name": "Republic of Kosovo",
      "isAPlace": true,
      "bounds": {
        "northeast": {
          "lat": 43.2688985,
          "lng": 21.7898669
        },
        "southwest": {
          "lat": 41.857641,
          "lng": 20.014284
        }
      }
    }
  ],
  [
    17818,
    {
      "name": "State of Kuwait",
      "isAPlace": true,
      "bounds": {
        "northeast": {
          "lat": 30.1036993,
          "lng": 48.5184
        },
        "southwest": {
          "lat": 28.5244463,
          "lng": 46.55303989999999
        }
      }
    }
  ],
  [
    236800,
    {
      "name": "Lao People's Democratic Republic",
      "isAPlace": true,
      "bounds": {
        "northeast": {
          "lat": 22.502872,
          "lng": 107.69483
        },
        "southwest": {
          "lat": 13.90972,
          "lng": 100.0832139
        }
      }
    }
  ],
  [
    10452,
    {
      "name": "Lebanese Republic",
      "isAPlace": true,
      "bounds": {
        "northeast": {
          "lat": 34.69209,
          "lng": 36.62372
        },
        "southwest": {
          "lat": 33.0550256,
          "lng": 35.0711001
        }
      }
    }
  ],
  [
    111369,
    {
      "name": "Republic of Liberia",
      "isAPlace": true,
      "bounds": {
        "northeast": {
          "lat": 8.551986,
          "lng": -7.3692549
        },
        "southwest": {
          "lat": 4.269699999999999,
          "lng": -11.5355999
        }
      }
    }
  ],
  [
    1759540,
    {
      "name": "State of Libya",
      "isAPlace": true,
      "bounds": {
        "northeast": {
          "lat": 33.2203,
          "lng": 25.2686
        },
        "southwest": {
          "lat": 19.5,
          "lng": 9.391466
        }
      }
    }
  ],
  [
    616,
    {
      "name": "Saint Lucia",
      "isAPlace": true,
      "bounds": {
        "northeast": {
          "lat": 14.1209277,
          "lng": -60.85979460000001
        },
        "southwest": {
          "lat": 13.7047779,
          "lng": -61.0812378
        }
      }
    }
  ],
  [
    160,
    {
      "name": "Principality of Liechtenstein",
      "isAPlace": true,
      "bounds": {
        "northeast": {
          "lat": 47.2705467,
          "lng": 9.6356501
        },
        "southwest": {
          "lat": 47.04828999999999,
          "lng": 9.47162
        }
      }
    }
  ],
  [
    65610,
    {
      "name": "Democratic Socialist Republic of Sri Lanka",
      "isAPlace": true,
      "bounds": {
        "northeast": {
          "lat": 10.03377,
          "lng": 82.14479999999999
        },
        "southwest": {
          "lat": 5.6816,
          "lng": 79.26769999999999
        }
      }
    }
  ],
  [
    30355,
    {
      "name": "Kingdom of Lesotho",
      "isAPlace": true,
      "bounds": {
        "northeast": {
          "lat": -28.5708011,
          "lng": 29.4557087
        },
        "southwest": {
          "lat": -30.6755788,
          "lng": 27.011231
        }
      }
    }
  ],
  [
    65300,
    {
      "name": "Republic of Lithuania",
      "isAPlace": true,
      "bounds": {
        "northeast": {
          "lat": 56.45032089999999,
          "lng": 26.8355913
        },
        "southwest": {
          "lat": 53.89687869999999,
          "lng": 20.931
        }
      }
    }
  ],
  [
    2586,
    {
      "name": "Grand Duchy of Luxembourg",
      "isAPlace": true,
      "bounds": {
        "northeast": {
          "lat": 50.18282,
          "lng": 6.530970099999999
        },
        "southwest": {
          "lat": 49.447779,
          "lng": 5.7356699
        }
      }
    }
  ],
  [
    64559,
    {
      "name": "Republic of Latvia",
      "isAPlace": true,
      "bounds": {
        "northeast": {
          "lat": 58.0855688,
          "lng": 28.2414029
        },
        "southwest": {
          "lat": 55.6747769,
          "lng": 20.8465998
        }
      }
    }
  ],
  [
    30,
    {
      "name": "Macao Special Administrative Region of the People's Republic of China",
      "isAPlace": true,
      "bounds": {
        "northeast": {
          "lat": 53.56097399999999,
          "lng": 134.7728099
        },
        "southwest": {
          "lat": 17.9996,
          "lng": 73.4994136
        }
      }
    }
  ],
  [
    53,
    {
      "name": "Saint Martin",
      "isAPlace": true,
      "bounds": {
        "northeast": {
          "lat": 18.1356001,
          "lng": -62.9613001
        },
        "southwest": {
          "lat": 18.0462883,
          "lng": -63.1630001
        }
      }
    }
  ],
  [
    446550,
    {
      "name": "Kingdom of Morocco",
      "isAPlace": true,
      "bounds": {
        "northeast": {
          "lat": 35.9344,
          "lng": -0.996976
        },
        "southwest": {
          "lat": 27.6672694,
          "lng": -13.3044001
        }
      }
    }
  ],
  [
    2.02,
    {
      "name": "Principality of Monaco",
      "isAPlace": true,
      "bounds": {
        "northeast": {
          "lat": 43.7519029,
          "lng": 7.4426
        },
        "southwest": {
          "lat": 43.7237999,
          "lng": 7.4091049
        }
      }
    }
  ],
  [
    33846,
    {
      "name": "Republic of Moldova",
      "isAPlace": true,
      "bounds": {
        "northeast": {
          "lat": 48.491944,
          "lng": 30.162538
        },
        "southwest": {
          "lat": 45.466904,
          "lng": 26.6168559
        }
      }
    }
  ],
  [
    587041,
    {
      "name": "Republic of Madagascar",
      "isAPlace": true,
      "bounds": {
        "northeast": {
          "lat": -11.4369999,
          "lng": 50.9985001
        },
        "southwest": {
          "lat": -26.2146,
          "lng": 42.7368
        }
      }
    }
  ],
  [
    300,
    {
      "name": "Republic of the Maldives",
      "isAPlace": true,
      "bounds": {
        "northeast": {
          "lat": 7.5149809,
          "lng": 74.7290038
        },
        "southwest": {
          "lat": -1.2907844,
          "lng": 71.75170899999999
        }
      }
    }
  ],
  [
    1964375,
    {
      "name": "United Mexican States",
      "isAPlace": true,
      "bounds": {
        "northeast": {
          "lat": 32.7187629,
          "lng": -86.5887
        },
        "southwest": {
          "lat": 14.3895,
          "lng": -118.6523001
        }
      }
    }
  ],
  [
    181,
    {
      "name": "Republic of the Marshall Islands",
      "isAPlace": true,
      "bounds": {
        "northeast": {
          "lat": 15.0190749,
          "lng": 172.5732421
        },
        "southwest": {
          "lat": 4.1601583,
          "lng": 159.8840332
        }
      }
    }
  ],
  [
    25713,
    {
      "name": "Republic of Macedonia",
      "isAPlace": true,
      "bounds": {
        "northeast": {
          "lat": 42.373646,
          "lng": 23.034093
        },
        "southwest": {
          "lat": 40.8537826,
          "lng": 20.452423
        }
      }
    }
  ],
  [
    1240192,
    {
      "name": "Republic of Mali",
      "isAPlace": true,
      "bounds": {
        "northeast": {
          "lat": 25.001084,
          "lng": 4.2673828
        },
        "southwest": {
          "lat": 10.147811,
          "lng": -12.2388849
        }
      }
    }
  ],
  [
    316,
    {
      "name": "Republic of Malta",
      "isAPlace": true,
      "bounds": {
        "northeast": {
          "lat": 36.0853,
          "lng": 14.5765999
        },
        "southwest": {
          "lat": 35.79960000000001,
          "lng": 14.1801001
        }
      }
    }
  ],
  [
    676578,
    {
      "name": "Republic of the Union of Myanmar",
      "isAPlace": true,
      "bounds": {
        "northeast": {
          "lat": 28.5478351,
          "lng": 101.1702717
        },
        "southwest": {
          "lat": 9.4518,
          "lng": 92.171808
        }
      }
    }
  ],
  [
    13812,
    {
      "name": "Montenegro",
      "isAPlace": true,
      "bounds": {
        "northeast": {
          "lat": 43.558743,
          "lng": 20.3574869
        },
        "southwest": {
          "lat": 41.8297,
          "lng": 18.4337921
        }
      }
    }
  ],
  [
    1564110,
    {
      "name": "Mongolia",
      "isAPlace": true,
      "bounds": {
        "northeast": {
          "lat": 52.1486965,
          "lng": 119.9319489
        },
        "southwest": {
          "lat": 41.5815201,
          "lng": 87.73761999999999
        }
      }
    }
  ],
  [
    464,
    {
      "name": "Commonwealth of the Northern Mariana Islands",
      "isAPlace": true,
      "bounds": {
        "northeast": {
          "lat": 20.6584862,
          "lng": 146.2060546
        },
        "southwest": {
          "lat": 13.9713848,
          "lng": 144.7668457
        }
      }
    }
  ],
  [
    801590,
    {
      "name": "Republic of Mozambique",
      "isAPlace": true,
      "bounds": {
        "northeast": {
          "lat": -10.3128929,
          "lng": 41.3965
        },
        "southwest": {
          "lat": -26.9612,
          "lng": 30.2155501
        }
      }
    }
  ],
  [
    1030700,
    {
      "name": "Islamic Republic of Mauritania",
      "isAPlace": true,
      "bounds": {
        "northeast": {
          "lat": 27.3158916,
          "lng": -4.8336008
        },
        "southwest": {
          "lat": 14.721273,
          "lng": -17.0687276
        }
      }
    }
  ],
  [
    102,
    {
      "name": "Montserrat",
      "isAPlace": true,
      "bounds": {
        "northeast": {
          "lat": 16.8260672,
          "lng": -62.14262009999999
        },
        "southwest": {
          "lat": 16.671007,
          "lng": -62.242584
        }
      }
    }
  ],
  [
    1128,
    {
      "name": "Martinique",
      "isAPlace": true,
      "bounds": {
        "northeast": {
          "lat": 14.8973451,
          "lng": -60.7856368
        },
        "southwest": {
          "lat": 14.370834,
          "lng": -61.24191279999999
        }
      }
    }
  ],
  [
    2040,
    {
      "name": "Republic of Mauritius",
      "isAPlace": true,
      "bounds": {
        "northeast": {
          "lat": -10.0878538,
          "lng": 63.80859390000001
        },
        "southwest": {
          "lat": -20.7458403,
          "lng": 56.3159179
        }
      }
    }
  ],
  [
    118484,
    {
      "name": "Republic of Malawi",
      "isAPlace": true,
      "bounds": {
        "northeast": {
          "lat": -9.367227399999999,
          "lng": 35.91857299999999
        },
        "southwest": {
          "lat": -17.1295216,
          "lng": 32.6725205
        }
      }
    }
  ],
  [
    330803,
    {
      "name": "Malaysia",
      "isAPlace": true,
      "bounds": {
        "northeast": {
          "lat": 7.5191,
          "lng": 119.4000001
        },
        "southwest": {
          "lat": 0.8538209,
          "lng": 98.9353999
        }
      }
    }
  ],
  [
    374,
    {
      "name": "Department of Mayotte",
      "isAPlace": true,
      "bounds": {
        "northeast": {
          "lat": -12.5772665,
          "lng": 45.32014849999999
        },
        "southwest": {
          "lat": -13.0358332,
          "lng": 44.9914169
        }
      }
    }
  ],
  [
    825615,
    {
      "name": "Republic of Namibia",
      "isAPlace": true,
      "bounds": {
        "northeast": {
          "lat": -16.9634851,
          "lng": 25.261752
        },
        "southwest": {
          "lat": -28.9706391,
          "lng": 11.4696999
        }
      }
    }
  ],
  [
    18575,
    {
      "name": "New Caledonia",
      "isAPlace": true,
      "bounds": {
        "northeast": {
          "lat": -19.1607355,
          "lng": 168.3325194
        },
        "southwest": {
          "lat": -23.2514406,
          "lng": 163.3557129
        }
      }
    }
  ],
  [
    1267000,
    {
      "name": "Republic of Niger",
      "isAPlace": true,
      "bounds": {
        "northeast": {
          "lat": 23.4999999,
          "lng": 15.9990339
        },
        "southwest": {
          "lat": 11.693756,
          "lng": 0.1617178
        }
      }
    }
  ],
  [
    36,
    {
      "name": "Territory of Norfolk Island",
      "isAPlace": true,
      "bounds": {
        "northeast": {
          "lat": -28.9929014,
          "lng": 167.9985523
        },
        "southwest": {
          "lat": -29.137506,
          "lng": 167.9134083
        }
      }
    }
  ],
  [
    923768,
    {
      "name": "Federal Republic of Nigeria",
      "isAPlace": true,
      "bounds": {
        "northeast": {
          "lat": 13.8856449,
          "lng": 14.677982
        },
        "southwest": {
          "lat": 4.1821001,
          "lng": 2.676932
        }
      }
    }
  ],
  [
    130373,
    {
      "name": "Republic of Nicaragua",
      "isAPlace": true,
      "bounds": {
        "northeast": {
          "lat": 15.0302755,
          "lng": -82.2766
        },
        "southwest": {
          "lat": 10.7080549,
          "lng": -87.7588
        }
      }
    }
  ],
  [
    260,
    {
      "name": "Niue",
      "isAPlace": true,
      "bounds": {
        "northeast": {
          "lat": -18.952625,
          "lng": -169.7743248
        },
        "southwest": {
          "lat": -19.1555668,
          "lng": -169.9500846
        }
      }
    }
  ],
  [
    41850,
    {
      "name": "Netherlands",
      "isAPlace": true,
      "bounds": {
        "northeast": {
          "lat": 53.6316,
          "lng": 7.227510199999999
        },
        "southwest": {
          "lat": 50.75038379999999,
          "lng": 3.3316001
        }
      }
    }
  ],
  [
    323802,
    {
      "name": "Kingdom of Norway",
      "isAPlace": true,
      "bounds": {
        "northeast": {
          "lat": 71.30780000000001,
          "lng": 31.3549998
        },
        "southwest": {
          "lat": 57.8097,
          "lng": 4.0649
        }
      }
    }
  ],
  [
    147181,
    {
      "name": "Federal Democratic Republic of Nepal",
      "isAPlace": true,
      "bounds": {
        "northeast": {
          "lat": 30.4469452,
          "lng": 88.20152569999999
        },
        "southwest": {
          "lat": 26.3479661,
          "lng": 80.05846980000001
        }
      }
    }
  ],
  [
    21,
    {
      "name": "Republic of Nauru",
      "isAPlace": true,
      "bounds": {
        "northeast": {
          "lat": -0.4978976000000001,
          "lng": 166.9631767
        },
        "southwest": {
          "lat": -0.5580623,
          "lng": 166.9071293
        }
      }
    }
  ],
  [
    270467,
    {
      "name": "New Zealand",
      "isAPlace": true,
      "bounds": {
        "northeast": {
          "lat": -28.8773225,
          "lng": -175.1235077
        },
        "southwest": {
          "lat": -52.7224663,
          "lng": 165.7437641
        }
      }
    }
  ],
  [
    309500,
    {
      "name": "Sultanate of Oman",
      "isAPlace": true,
      "bounds": {
        "northeast": {
          "lat": 26.4361001,
          "lng": 60.30399999999999
        },
        "southwest": {
          "lat": 16.4571999,
          "lng": 52.0000018
        }
      }
    }
  ],
  [
    881912,
    {
      "name": "Islamic Republic of Pakistan",
      "isAPlace": true,
      "bounds": {
        "northeast": {
          "lat": 37.084107,
          "lng": 77.8316195
        },
        "southwest": {
          "lat": 23.6344999,
          "lng": 60.8729721
        }
      }
    }
  ],
  [
    75417,
    {
      "name": "Republic of Panama",
      "isAPlace": true,
      "bounds": {
        "northeast": {
          "lat": 9.7145001,
          "lng": -77.15848799999999
        },
        "southwest": {
          "lat": 7.0409,
          "lng": -83.05224109999999
        }
      }
    }
  ],
  [
    47,
    {
      "name": "Pitcairn Group of Islands",
      "isAPlace": true,
      "bounds": {
        "northeast": {
          "lat": 67.2466,
          "lng": -12.2388001
        },
        "southwest": {
          "lat": 62.4819,
          "lng": -26.2572998
        }
      }
    }
  ],
  [
    1285216,
    {
      "name": "Republic of Peru",
      "isAPlace": true,
      "bounds": {
        "northeast": {
          "lat": -0.038777,
          "lng": -68.652329
        },
        "southwest": {
          "lat": -18.4483,
          "lng": -81.3867001
        }
      }
    }
  ],
  [
    342353,
    {
      "name": "Republic of the Philippines",
      "isAPlace": true,
      "bounds": {
        "northeast": {
          "lat": 19.932,
          "lng": 127.6444784
        },
        "southwest": {
          "lat": 4.2259,
          "lng": 116.1474999
        }
      }
    }
  ],
  [
    459,
    {
      "name": "Republic of Palau",
      "isAPlace": true,
      "bounds": {
        "northeast": {
          "lat": 8.238674,
          "lng": 135.0769
        },
        "southwest": {
          "lat": 2.6394,
          "lng": 131.0115
        }
      }
    }
  ],
  [
    462840,
    {
      "name": "Independent State of Papua New Guinea",
      "isAPlace": true,
      "bounds": {
        "northeast": {
          "lat": -0.6702,
          "lng": 159.9609001
        },
        "southwest": {
          "lat": -12.0823,
          "lng": 140.8419695
        }
      }
    }
  ],
  [
    312679,
    {
      "name": "Republic of Poland",
      "isAPlace": true,
      "bounds": {
        "northeast": {
          "lat": 54.9054761,
          "lng": 24.1458931
        },
        "southwest": {
          "lat": 49.0020252,
          "lng": 14.1228641
        }
      }
    }
  ],
  [
    8870,
    {
      "name": "Commonwealth of Puerto Rico",
      "isAPlace": true,
      "bounds": {
        "northeast": {
          "lat": 18.5160099,
          "lng": -65.2211099
        },
        "southwest": {
          "lat": 17.88124,
          "lng": -67.95158169999999
        }
      }
    }
  ],
  [
    120538,
    {
      "name": "Democratic People's Republic of Korea",
      "isAPlace": true,
      "bounds": {
        "northeast": {
          "lat": 43.01159,
          "lng": 131.1603
        },
        "southwest": {
          "lat": 33.0041,
          "lng": 124.1718463
        }
      }
    }
  ],
  [
    92090,
    {
      "name": "Portuguese Republic",
      "isAPlace": true,
      "bounds": {
        "northeast": {
          "lat": -34.7097772,
          "lng": -58.56326670000001
        },
        "southwest": {
          "lat": -34.7146857,
          "lng": -58.56978279999999
        }
      }
    }
  ],
  [
    406752,
    {
      "name": "Republic of Paraguay",
      "isAPlace": true,
      "bounds": {
        "northeast": {
          "lat": -19.2876589,
          "lng": -54.258562
        },
        "southwest": {
          "lat": -27.5817594,
          "lng": -62.63813879999999
        }
      }
    }
  ],
  [
    6220,
    {
      "name": "State of Palestine",
      "isAPlace": true,
      "bounds": {
        "northeast": {
          "lat": 32.5520999,
          "lng": 35.5740521
        },
        "southwest": {
          "lat": 31.219691,
          "lng": 34.21010010000001
        }
      }
    }
  ],
  [
    4167,
    {
      "name": "French Polynesia",
      "isAPlace": true,
      "bounds": {
        "northeast": {
          "lat": -6.4682,
          "lng": -137.3511
        },
        "southwest": {
          "lat": -28.61346,
          "lng": -154.4677999
        }
      }
    }
  ],
  [
    11586,
    {
      "name": "State of Qatar",
      "isAPlace": true,
      "bounds": {
        "northeast": {
          "lat": 26.2171,
          "lng": 51.6769
        },
        "southwest": {
          "lat": 24.471118,
          "lng": 50.7211001
        }
      }
    }
  ],
  [
    2511,
    {
      "name": "Réunion Island",
      "isAPlace": true
    }
  ],
  [
    238391,
    {
      "name": "Romania",
      "isAPlace": true,
      "bounds": {
        "northeast": {
          "lat": 48.265274,
          "lng": 29.77839999999999
        },
        "southwest": {
          "lat": 43.6186193,
          "lng": 20.2617593
        }
      }
    }
  ],
  [
    17098242,
    {
      "name": "Russian Federation",
      "isAPlace": true,
      "bounds": {
        "northeast": {
          "lat": 82.1673907,
          "lng": -168.9778799
        },
        "southwest": {
          "lat": 41.185353,
          "lng": 19.6160999
        }
      }
    }
  ],
  [
    26338,
    {
      "name": "Republic of Rwanda",
      "isAPlace": true,
      "bounds": {
        "northeast": {
          "lat": -1.0473753,
          "lng": 30.8991179
        },
        "southwest": {
          "lat": -2.8399383,
          "lng": 28.861754
        }
      }
    }
  ],
  [
    2149690,
    {
      "name": "Kingdom of Saudi Arabia",
      "isAPlace": true,
      "bounds": {
        "northeast": {
          "lat": 32.154284,
          "lng": 55.6666999
        },
        "southwest": {
          "lat": 16.0036,
          "lng": 34.5299999
        }
      }
    }
  ],
  [
    1886068,
    {
      "name": "Republic of the Sudan",
      "isAPlace": true,
      "bounds": {
        "northeast": {
          "lat": 22.224918,
          "lng": 38.69379989999999
        },
        "southwest": {
          "lat": 9.3472209,
          "lng": 21.814939
        }
      }
    }
  ],
  [
    196722,
    {
      "name": "Republic of Senegal",
      "isAPlace": true,
      "bounds": {
        "northeast": {
          "lat": 16.6930539,
          "lng": -11.348607
        },
        "southwest": {
          "lat": 12.2649001,
          "lng": -17.6879999
        }
      }
    }
  ],
  [
    710,
    {
      "name": "Republic of Singapore",
      "isAPlace": true,
      "bounds": {
        "northeast": {
          "lat": 1.4784001,
          "lng": 104.0945001
        },
        "southwest": {
          "lat": 1.1496,
          "lng": 103.594
        }
      }
    }
  ],
  [
    3903,
    {
      "name": "South Georgia and the South Sandwich Islands",
      "isAPlace": true,
      "bounds": {
        "northeast": {
          "lat": -53.8525267,
          "lng": -25.4663086
        },
        "southwest": {
          "lat": -59.91097600000001,
          "lng": -38.4301758
        }
      }
    }
  ],
  [
    -1,
    {
      "name": "Svalbard og Jan Mayen",
      "isAPlace": true,
      "bounds": {
        "northeast": {
          "lat": 80.92842569999999,
          "lng": 34.804688
        },
        "southwest": {
          "lat": 70.4662074,
          "lng": -10.5468751
        }
      }
    }
  ],
  [
    28896,
    {
      "name": "Solomon Islands",
      "isAPlace": true,
      "bounds": {
        "northeast": {
          "lat": -6.075011,
          "lng": 168.0249023
        },
        "southwest": {
          "lat": -12.6832149,
          "lng": 155.1187134
        }
      }
    }
  ],
  [
    71740,
    {
      "name": "Republic of Sierra Leone",
      "isAPlace": true,
      "bounds": {
        "northeast": {
          "lat": 9.9999737,
          "lng": -10.271683
        },
        "southwest": {
          "lat": 6.8446,
          "lng": -13.4032999
        }
      }
    }
  ],
  [
    21041,
    {
      "name": "Republic of El Salvador",
      "isAPlace": true,
      "bounds": {
        "northeast": {
          "lat": 14.4505567,
          "lng": -87.6682
        },
        "southwest": {
          "lat": 13.0473999,
          "lng": -90.19229999999999
        }
      }
    }
  ],
  [
    61,
    {
      "name": "Most Serene Republic of San Marino",
      "isAPlace": true,
      "bounds": {
        "northeast": {
          "lat": 43.992075,
          "lng": 12.5167041
        },
        "southwest": {
          "lat": 43.8936809,
          "lng": 12.4034824
        }
      }
    }
  ],
  [
    637657,
    {
      "name": "Federal Republic of Somalia",
      "isAPlace": true,
      "bounds": {
        "northeast": {
          "lat": 12.3615,
          "lng": 51.6138
        },
        "southwest": {
          "lat": -1.8673,
          "lng": 40.994373
        }
      }
    }
  ],
  [
    242,
    {
      "name": "Saint Pierre and Miquelon",
      "isAPlace": true,
      "bounds": {
        "northeast": {
          "lat": 47.21579999999999,
          "lng": -55.98249999999999
        },
        "southwest": {
          "lat": 46.7003,
          "lng": -56.5233
        }
      }
    }
  ],
  [
    88361,
    {
      "name": "Republic of Serbia",
      "isAPlace": true,
      "bounds": {
        "northeast": {
          "lat": 46.190032,
          "lng": 23.0063095
        },
        "southwest": {
          "lat": 42.2315029,
          "lng": 18.8385221
        }
      }
    }
  ],
  [
    619745,
    {
      "name": "Republic of South Sudan",
      "isAPlace": true,
      "bounds": {
        "northeast": {
          "lat": 12.236389,
          "lng": 35.9489971
        },
        "southwest": {
          "lat": 3.48898,
          "lng": 23.4408491
        }
      }
    }
  ],
  [
    964,
    {
      "name": "Democratic Republic of São Tomé and Príncipe",
      "isAPlace": true
    }
  ],
  [
    163820,
    {
      "name": "Republic of Suriname",
      "isAPlace": true,
      "bounds": {
        "northeast": {
          "lat": 6.1295999,
          "lng": -53.94289999999999
        },
        "southwest": {
          "lat": 1.837306,
          "lng": -58.07050590000001
        }
      }
    }
  ],
  [
    49037,
    {
      "name": "Slovak Republic",
      "isAPlace": true
    }
  ],
  [
    20273,
    {
      "name": "Republic of Slovenia",
      "isAPlace": true,
      "bounds": {
        "northeast": {
          "lat": 46.876659,
          "lng": 16.6107039
        },
        "southwest": {
          "lat": 45.4218356,
          "lng": 13.3753355
        }
      }
    }
  ],
  [
    450295,
    {
      "name": "Kingdom of Sweden",
      "isAPlace": true,
      "bounds": {
        "northeast": {
          "lat": 69.0599709,
          "lng": 24.1773102
        },
        "southwest": {
          "lat": 55.0059799,
          "lng": 10.5798
        }
      }
    }
  ],
  [
    17364,
    {
      "name": "Kingdom of Swaziland",
      "isAPlace": true,
      "bounds": {
        "northeast": {
          "lat": -25.71792,
          "lng": 32.1349067
        },
        "southwest": {
          "lat": -27.317402,
          "lng": 30.79064
        }
      }
    }
  ],
  [
    34,
    {
      "name": "Sint Maarten",
      "isAPlace": true,
      "bounds": {
        "northeast": {
          "lat": 18.0641707,
          "lng": -62.9784
        },
        "southwest": {
          "lat": 17.9941,
          "lng": -63.13979990000001
        }
      }
    }
  ],
  [
    452,
    {
      "name": "Republic of Seychelles",
      "isAPlace": true,
      "bounds": {
        "northeast": {
          "lat": -4.0766037,
          "lng": 56.3928224
        },
        "southwest": {
          "lat": -10.4716073,
          "lng": 45.9832764
        }
      }
    }
  ],
  [
    185180,
    {
      "name": "Syrian Arab Republic",
      "isAPlace": true,
      "bounds": {
        "northeast": {
          "lat": 37.318693,
          "lng": 42.376309
        },
        "southwest": {
          "lat": 32.311136,
          "lng": 35.62869999999999
        }
      }
    }
  ],
  [
    948,
    {
      "name": "Turks and Caicos Islands",
      "isAPlace": true,
      "bounds": {
        "northeast": {
          "lat": 22.0016285,
          "lng": -71.05949989999999
        },
        "southwest": {
          "lat": 21.1459922,
          "lng": -72.52069999999999
        }
      }
    }
  ],
  [
    1284000,
    {
      "name": "Republic of Chad",
      "isAPlace": true,
      "bounds": {
        "northeast": {
          "lat": 23.449228,
          "lng": 24.0000011
        },
        "southwest": {
          "lat": 7.442975,
          "lng": 13.4699999
        }
      }
    }
  ],
  [
    56785,
    {
      "name": "Togolese Republic",
      "isAPlace": true,
      "bounds": {
        "northeast": {
          "lat": 11.1404963,
          "lng": 1.8088218
        },
        "southwest": {
          "lat": 6.0812,
          "lng": -0.144042
        }
      }
    }
  ],
  [
    513120,
    {
      "name": "Kingdom of Thailand",
      "isAPlace": true,
      "bounds": {
        "northeast": {
          "lat": 20.465143,
          "lng": 105.636812
        },
        "southwest": {
          "lat": 5.613038,
          "lng": 97.343396
        }
      }
    }
  ],
  [
    143100,
    {
      "name": "Republic of Tajikistan",
      "isAPlace": true,
      "bounds": {
        "northeast": {
          "lat": 41.044367,
          "lng": 75.1539564
        },
        "southwest": {
          "lat": 36.6719898,
          "lng": 67.34201209999999
        }
      }
    }
  ],
  [
    12,
    {
      "name": "Tokelau",
      "isAPlace": true,
      "bounds": {
        "northeast": {
          "lat": -8.4221116,
          "lng": -171.0928346
        },
        "southwest": {
          "lat": -9.5059527,
          "lng": -172.6625061
        }
      }
    }
  ],
  [
    488100,
    {
      "name": "Turkmenistan",
      "isAPlace": true,
      "bounds": {
        "northeast": {
          "lat": 42.798844,
          "lng": 66.70735309999999
        },
        "southwest": {
          "lat": 35.12876,
          "lng": 52.3169
        }
      }
    }
  ],
  [
    14874,
    {
      "name": "Democratic Republic of Timor-Leste",
      "isAPlace": true,
      "bounds": {
        "northeast": {
          "lat": -8.048399999999999,
          "lng": 127.4249
        },
        "southwest": {
          "lat": -9.5303001,
          "lng": 124.0332
        }
      }
    }
  ],
  [
    747,
    {
      "name": "Kingdom of Tonga",
      "isAPlace": true,
      "bounds": {
        "northeast": {
          "lat": -15.4060236,
          "lng": -173.2543946
        },
        "southwest": {
          "lat": -21.8360059,
          "lng": -175.9570313
        }
      }
    }
  ],
  [
    5130,
    {
      "name": "Republic of Trinidad and Tobago",
      "isAPlace": true,
      "bounds": {
        "northeast": {
          "lat": 11.4004,
          "lng": -60.45089989999999
        },
        "southwest": {
          "lat": 9.9930001,
          "lng": -61.9725001
        }
      }
    }
  ],
  [
    163610,
    {
      "name": "Tunisian Republic",
      "isAPlace": true,
      "bounds": {
        "northeast": {
          "lat": 37.5359,
          "lng": 11.599217
        },
        "southwest": {
          "lat": 30.2280339,
          "lng": 7.522311
        }
      }
    }
  ],
  [
    783562,
    {
      "name": "Republic of Turkey",
      "isAPlace": true,
      "bounds": {
        "northeast": {
          "lat": 42.3666999,
          "lng": 44.8178449
        },
        "southwest": {
          "lat": 35.808592,
          "lng": 25.5377
        }
      }
    }
  ],
  [
    26,
    {
      "name": "Tuvalu",
      "isAPlace": true,
      "bounds": {
        "northeast": {
          "lat": -5.4300853,
          "lng": 179.9999999
        },
        "southwest": {
          "lat": -11.1891797,
          "lng": 175.5615234
        }
      }
    }
  ],
  [
    36193,
    {
      "name": "Republic of China (Taiwan)",
      "isAPlace": true,
      "bounds": {
        "northeast": {
          "lat": 25.1956281,
          "lng": 121.9660124
        },
        "southwest": {
          "lat": 21.8966958,
          "lng": 119.3144141
        }
      }
    }
  ],
  [
    945087,
    {
      "name": "United Republic of Tanzania",
      "isAPlace": true,
      "bounds": {
        "northeast": {
          "lat": -0.984397,
          "lng": 40.6398
        },
        "southwest": {
          "lat": -11.7612539,
          "lng": 29.34
        }
      }
    }
  ],
  [
    241550,
    {
      "name": "Republic of Uganda",
      "isAPlace": true,
      "bounds": {
        "northeast": {
          "lat": 4.2186278,
          "lng": 35.0330489
        },
        "southwest": {
          "lat": -1.4823179,
          "lng": 29.573433
        }
      }
    }
  ],
  [
    603500,
    {
      "name": "Ukraine",
      "isAPlace": true,
      "bounds": {
        "northeast": {
          "lat": 52.37958099999999,
          "lng": 40.2285809
        },
        "southwest": {
          "lat": 44.2924,
          "lng": 22.137159
        }
      }
    }
  ],
  [
    34.2,
    {
      "name": "United States Minor Outlying Islands",
      "isAPlace": true,
      "bounds": {
        "northeast": {
          "lat": 28.3977184,
          "lng": -159.9849071
        },
        "southwest": {
          "lat": -0.3824678,
          "lng": 166.5989221
        }
      }
    }
  ],
  [
    181034,
    {
      "name": "Oriental Republic of Uruguay",
      "isAPlace": true,
      "bounds": {
        "northeast": {
          "lat": -30.0852149,
          "lng": -53.0779286
        },
        "southwest": {
          "lat": -35.1558001,
          "lng": -58.4913609
        }
      }
    }
  ],
  [
    9372610,
    {
      "name": "United States of America",
      "isAPlace": true,
      "bounds": {
        "northeast": {
          "lat": 71.5388001,
          "lng": -66.885417
        },
        "southwest": {
          "lat": 18.7763,
          "lng": 170.5957
        }
      }
    }
  ],
  [
    447400,
    {
      "name": "Republic of Uzbekistan",
      "isAPlace": true,
      "bounds": {
        "northeast": {
          "lat": 45.590075,
          "lng": 73.148946
        },
        "southwest": {
          "lat": 37.1722571,
          "lng": 55.9982179
        }
      }
    }
  ],
  [
    0.44,
    {
      "name": "Vatican City State",
      "isAPlace": true,
      "bounds": {
        "northeast": {
          "lat": 41.90744309999999,
          "lng": 12.4583938
        },
        "southwest": {
          "lat": 41.9001896,
          "lng": 12.4457286
        }
      }
    }
  ],
  [
    389,
    {
      "name": "Saint Vincent and the Grenadines",
      "isAPlace": true,
      "bounds": {
        "northeast": {
          "lat": 13.4136657,
          "lng": -61.0846
        },
        "southwest": {
          "lat": 12.5294999,
          "lng": -61.4822
        }
      }
    }
  ],
  [
    916445,
    {
      "name": "Bolivarian Republic of Venezuela",
      "isAPlace": true,
      "bounds": {
        "northeast": {
          "lat": 12.6886,
          "lng": -59.805666
        },
        "southwest": {
          "lat": 0.6475291,
          "lng": -73.35155809999999
        }
      }
    }
  ],
  [
    151,
    {
      "name": "Virgin Islands",
      "isAPlace": true,
      "bounds": {
        "northeast": {
          "lat": 18.4239,
          "lng": -64.4391
        },
        "southwest": {
          "lat": 17.5482999,
          "lng": -65.1101
        }
      }
    }
  ],
  [
    347,
    {
      "name": "Virgin Islands of the United States",
      "isAPlace": true,
      "bounds": {
        "northeast": {
          "lat": 71.5388001,
          "lng": -66.885417
        },
        "southwest": {
          "lat": 18.7763,
          "lng": 170.5957
        }
      }
    }
  ],
  [
    331212,
    {
      "name": "Socialist Republic of Vietnam",
      "isAPlace": true,
      "bounds": {
        "northeast": {
          "lat": 23.393395,
          "lng": 109.6765
        },
        "southwest": {
          "lat": 8.1952001,
          "lng": 102.14441
        }
      }
    }
  ],
  [
    12189,
    {
      "name": "Republic of Vanuatu",
      "isAPlace": true,
      "bounds": {
        "northeast": {
          "lat": -12.8064449,
          "lng": 170.5023193
        },
        "southwest": {
          "lat": -20.5350773,
          "lng": 166.0583495
        }
      }
    }
  ],
  [
    142,
    {
      "name": "Territory of the Wallis and Futuna Islands",
      "isAPlace": true
    }
  ],
  [
    2842,
    {
      "name": "Independent State of Samoa",
      "isAPlace": true,
      "bounds": {
        "northeast": {
          "lat": -13.4203449,
          "lng": -171.3968562
        },
        "southwest": {
          "lat": -14.0833012,
          "lng": -172.8108215
        }
      }
    }
  ],
  [
    527968,
    {
      "name": "Republic of Yemen",
      "isAPlace": true,
      "bounds": {
        "northeast": {
          "lat": 18.9996331,
          "lng": 54.67899999999999
        },
        "southwest": {
          "lat": 11.7975,
          "lng": 41.70959999999999
        }
      }
    }
  ],
  [
    1221037,
    {
      "name": "Republic of South Africa",
      "isAPlace": true,
      "bounds": {
        "northeast": {
          "lat": -22.1254241,
          "lng": 38.2216904
        },
        "southwest": {
          "lat": -47.1313489,
          "lng": 16.2816999
        }
      }
    }
  ],
  [
    752612,
    {
      "name": "Republic of Zambia",
      "isAPlace": true,
      "bounds": {
        "northeast": {
          "lat": -8.203284,
          "lng": 33.7090305
        },
        "southwest": {
          "lat": -18.077418,
          "lng": 21.999351
        }
      }
    }
  ],
  [
    390757,
    {
      "name": "Republic of Zimbabwe",
      "isAPlace": true,
      "bounds": {
        "northeast": {
          "lat": -15.609319,
          "lng": 33.068236
        },
        "southwest": {
          "lat": -22.4223538,
          "lng": 25.237368
        }
      }
    }
  ]
]
