{"name":"Nieuw-Balinge","containingGeoEntity":"Netherlands","location":{"lat":52.76742,"lng":6.60621}}
{"name":"Nieuwdorp","containingGeoEntity":"Netherlands","location":{"lat":37.074509,"lng":-94.467259}}
{"name":"Vuren","containingGeoEntity":"Netherlands","location":{"lat":51.82676,"lng":5.05448}}
{"name":"Erm","containingGeoEntity":"Netherlands","location":{"lat":52.754855,"lng":6.819173}}
{"name":"Hengelo","containingGeoEntity":"Netherlands","location":{"lat":52.267014,"lng":6.791866}}
{"name":"Gees","containingGeoEntity":"Netherlands","location":{"lat":52.748642,"lng":6.690615}}
{"name":"Tijnje","containingGeoEntity":"Netherlands","location":{"lat":53.030225,"lng":5.9935}}
{"name":"Ursem","containingGeoEntity":"Netherlands","location":{"lat":52.62769,"lng":4.891}}
{"name":"Varsseveld","containingGeoEntity":"Netherlands","location":{"lat":51.94373,"lng":6.46382}}
{"name":"Maarssenbroek","containingGeoEntity":"Netherlands","location":{"lat":52.13369,"lng":5.02456}}
{"name":"Limmen","containingGeoEntity":"Netherlands","location":{"lat":52.571906,"lng":4.69329}}
{"name":"Finsterwolde","containingGeoEntity":"Netherlands","location":{"lat":53.198339,"lng":7.083384}}
{"name":"Slochteren","containingGeoEntity":"Netherlands","location":{"lat":53.218505,"lng":6.805927}}
{"name":"Anna Paulowna","containingGeoEntity":"Netherlands","location":{"lat":52.861984,"lng":4.833986}}
{"name":"Ruurlo","containingGeoEntity":"Netherlands","location":{"lat":52.08776,"lng":6.44928}}
{"name":"Halle","containingGeoEntity":"Netherlands","location":{"lat":51.989928,"lng":6.429901}}
{"name":"Mastenbroek","containingGeoEntity":"Netherlands","location":{"lat":52.5741,"lng":6.02364}}
{"name":"Uitwellingerga","containingGeoEntity":"Netherlands","location":{"lat":53.00424,"lng":5.70271}}
{"name":"Nuis","containingGeoEntity":"Netherlands","location":{"lat":53.151352,"lng":6.30106}}
{"name":"Ulicoten","containingGeoEntity":"Netherlands","location":{"lat":51.45792,"lng":4.85649}}
{"name":"Ulestraten","containingGeoEntity":"Netherlands","location":{"lat":50.906594,"lng":5.784586}}
{"name":"Gouderak","containingGeoEntity":"Netherlands","location":{"lat":51.985081,"lng":4.675569}}
{"name":"Sint Pancras","containingGeoEntity":"Netherlands","location":{"lat":52.652307,"lng":4.779747}}
{"name":"Bovenkarspel","containingGeoEntity":"Netherlands","location":{"lat":52.698915,"lng":5.249795}}
{"name":"Lithoijen","containingGeoEntity":"Netherlands","location":{"lat":51.79952,"lng":5.46054}}
{"name":"Milheeze","containingGeoEntity":"Netherlands","location":{"lat":51.502984,"lng":5.779494}}
{"name":"IJzendijke","containingGeoEntity":"Netherlands","location":{"lat":51.321603,"lng":3.615634}}
{"name":"Valthermond","containingGeoEntity":"Netherlands","location":{"lat":38.968697,"lng":-92.831505}}
{"name":"Papekop","containingGeoEntity":"Netherlands","location":{"lat":52.044843,"lng":4.853489}}
{"name":"Heeze","containingGeoEntity":"Netherlands","location":{"lat":51.358823,"lng":5.578192}}
{"name":"Zwartsluis","containingGeoEntity":"Netherlands","location":{"lat":52.642545,"lng":6.072088}}
{"name":"Weurt","containingGeoEntity":"Netherlands","location":{"lat":51.85714,"lng":5.815957}}
{"name":"Kalenberg","containingGeoEntity":"Netherlands","location":{"lat":52.77698,"lng":5.95652}}
{"name":"Kockengen","containingGeoEntity":"Netherlands","location":{"lat":52.14861,"lng":4.949579}}
{"name":"Sappemeer","containingGeoEntity":"Netherlands","location":{"lat":38.711024,"lng":-90.404519}}
{"name":"Angeren","containingGeoEntity":"Netherlands","location":{"lat":51.91634,"lng":5.95698}}
{"name":"Purmerland","containingGeoEntity":"Netherlands","location":{"lat":52.480755,"lng":4.925978}}
{"name":"Hazerswoude-Rijndijk","containingGeoEntity":"Netherlands","location":{"lat":52.127075,"lng":4.592216}}
{"name":"Nijbroek","containingGeoEntity":"Netherlands","location":{"lat":52.291883,"lng":6.063002}}
{"name":"Winkel","containingGeoEntity":"Netherlands","location":{"lat":52.75473,"lng":4.90279}}
{"name":"Nijkerkerveen","containingGeoEntity":"Netherlands","location":{"lat":52.19458,"lng":5.46589}}
{"name":"Ter Apelkanaal","containingGeoEntity":"Netherlands","location":{"lat":52.90933,"lng":7.04838}}
{"name":"Hoevelaken","containingGeoEntity":"Netherlands","location":{"lat":52.175801,"lng":5.457632}}
{"name":"Dorst","containingGeoEntity":"Netherlands","location":{"lat":51.59025,"lng":4.85912}}
{"name":"Den Hout","containingGeoEntity":"Netherlands","location":{"lat":38.764772,"lng":-93.740878}}
{"name":"Wijdenes","containingGeoEntity":"Netherlands","location":{"lat":52.634719,"lng":5.157295}}
{"name":"Hem","containingGeoEntity":"Netherlands","location":{"lat":40.423214,"lng":-105.05926}}
{"name":"Twisk","containingGeoEntity":"Netherlands","location":{"lat":52.738714,"lng":5.051777}}
{"name":"Nibbixwoud","containingGeoEntity":"Netherlands","location":{"lat":52.690375,"lng":5.059948}}
{"name":"Oostwoud","containingGeoEntity":"Netherlands","location":{"lat":52.725526,"lng":5.09203}}
{"name":"Benningbroek","containingGeoEntity":"Netherlands","location":{"lat":52.704319,"lng":5.013045}}
{"name":"Hoorn","containingGeoEntity":"Netherlands","location":{"lat":52.653272,"lng":5.07358}}
{"name":"Benthuizen","containingGeoEntity":"Netherlands","location":{"lat":52.077385,"lng":4.541128}}
{"name":"Katwoude","containingGeoEntity":"Netherlands","location":{"lat":52.467894,"lng":5.044006}}
{"name":"Oterleek","containingGeoEntity":"Netherlands","location":{"lat":52.63666,"lng":4.83446}}
{"name":"Obdam","containingGeoEntity":"Netherlands","location":{"lat":52.67615,"lng":4.90845}}
{"name":"Stompetoren","containingGeoEntity":"Netherlands","location":{"lat":52.61186,"lng":4.819883}}
{"name":"Tweede Valthermond","containingGeoEntity":"Netherlands","location":{"lat":52.89329,"lng":7.02785}}
{"name":"De Rijp","containingGeoEntity":"Netherlands","location":{"lat":38.71133,"lng":-90.370199}}
{"name":"Schermerhorn","containingGeoEntity":"Netherlands","location":{"lat":52.601075,"lng":4.889141}}
{"name":"Beets","containingGeoEntity":"Netherlands","location":{"lat":31.245645,"lng":-89.797661}}
{"name":"Broek in Waterland","containingGeoEntity":"Netherlands","location":{"lat":52.432523,"lng":4.995746}}
{"name":"Wijdewormer","containingGeoEntity":"Netherlands","location":{"lat":38.824912,"lng":-91.139293}}
{"name":"Jisp","containingGeoEntity":"Netherlands","location":{"lat":52.507689,"lng":4.849641}}
{"name":"Westbeemster","containingGeoEntity":"Netherlands","location":{"lat":52.574999,"lng":4.898615}}
{"name":"De Goorn","containingGeoEntity":"Netherlands","location":{"lat":52.647641,"lng":4.953042}}
{"name":"Avenhorn","containingGeoEntity":"Netherlands","location":{"lat":52.61789,"lng":4.949281}}
{"name":"Schellinkhout","containingGeoEntity":"Netherlands","location":{"lat":52.634343,"lng":5.122153}}
{"name":"Hensbroek","containingGeoEntity":"Netherlands","location":{"lat":52.65852,"lng":4.88461}}
{"name":"Blokker","containingGeoEntity":"Netherlands","location":{"lat":52.66148,"lng":5.089952}}
{"name":"Medemblik","containingGeoEntity":"Netherlands","location":{"lat":52.768691,"lng":5.106195}}
{"name":"Hauwert","containingGeoEntity":"Netherlands","location":{"lat":52.708078,"lng":5.100031}}
{"name":"Middenmeer","containingGeoEntity":"Netherlands","location":{"lat":38.594465,"lng":-90.471222}}
{"name":"Den Oever","containingGeoEntity":"Netherlands","location":{"lat":52.93385,"lng":5.03113}}
{"name":"Hoogwoud","containingGeoEntity":"Netherlands","location":{"lat":52.71639,"lng":4.931797}}
{"name":"Opmeer","containingGeoEntity":"Netherlands","location":{"lat":52.703337,"lng":4.947856}}
{"name":"Spanbroek","containingGeoEntity":"Netherlands","location":{"lat":52.697854,"lng":4.961221}}
{"name":"Spierdijk","containingGeoEntity":"Netherlands","location":{"lat":38.795812,"lng":-90.804447}}
{"name":"Keijenborg","containingGeoEntity":"Netherlands","location":{"lat":52.030594,"lng":6.296671}}
{"name":"Nieuw-Beijerland","containingGeoEntity":"Netherlands","location":{"lat":51.810207,"lng":4.341577}}
{"name":"Stad aan 't Haringvliet","containingGeoEntity":"Netherlands","location":{"lat":51.739729,"lng":4.243347}}
{"name":"Gelselaar","containingGeoEntity":"Netherlands","location":{"lat":52.16869,"lng":6.52768}}
{"name":"Werkhoven","containingGeoEntity":"Netherlands","location":{"lat":52.02612,"lng":5.24422}}
{"name":"Gennep","containingGeoEntity":"Netherlands","location":{"lat":51.695084,"lng":5.973455}}
{"name":"Driemond","containingGeoEntity":"Netherlands","location":{"lat":52.305237,"lng":5.016351}}
{"name":"Heveadorp","containingGeoEntity":"Netherlands","location":{"lat":51.97573,"lng":5.80905}}
{"name":"Nigtevecht","containingGeoEntity":"Netherlands","location":{"lat":52.275274,"lng":5.028854}}
{"name":"Wamel","containingGeoEntity":"Netherlands","location":{"lat":51.88112,"lng":5.46694}}
{"name":"Tuitjenhorn","containingGeoEntity":"Netherlands","location":{"lat":52.73644,"lng":4.74895}}
{"name":"Zieuwent","containingGeoEntity":"Netherlands","location":{"lat":52.00637,"lng":6.51942}}
{"name":"Langezwaag","containingGeoEntity":"Netherlands","location":{"lat":52.98185,"lng":6.00598}}
{"name":"Stoutenburg","containingGeoEntity":"Netherlands","location":{"lat":52.153895,"lng":5.433092}}
{"name":"Boekel","containingGeoEntity":"Netherlands","location":{"lat":51.602141,"lng":5.674675}}
{"name":"Hooge Zwaluwe","containingGeoEntity":"Netherlands","location":{"lat":51.68415,"lng":4.74952}}
{"name":"Woerdense Verlaat","containingGeoEntity":"Netherlands","location":{"lat":52.154737,"lng":4.863861}}
{"name":"Nederasselt","containingGeoEntity":"Netherlands","location":{"lat":51.773271,"lng":5.746805}}
{"name":"Waarder","containingGeoEntity":"Netherlands","location":{"lat":52.061352,"lng":4.820257}}
{"name":"Surhuizum","containingGeoEntity":"Netherlands","location":{"lat":53.20601,"lng":6.1775}}
{"name":"Wapenveld","containingGeoEntity":"Netherlands","location":{"lat":39.902721,"lng":-92.70684}}
{"name":"Marienberg","containingGeoEntity":"Netherlands","location":{"lat":52.51041,"lng":6.57523}}
{"name":"Batenburg","containingGeoEntity":"Netherlands","location":{"lat":51.82477,"lng":5.62874}}
{"name":"Marum","containingGeoEntity":"Netherlands","location":{"lat":53.144098,"lng":6.264465}}
{"name":"Mortel","containingGeoEntity":"Netherlands","location":{"lat":38.759408,"lng":-90.820384}}
{"name":"Nieuwpoort","containingGeoEntity":"Netherlands","location":{"lat":51.935298,"lng":4.868443}}
{"name":"Bergentheim","containingGeoEntity":"Netherlands","location":{"lat":52.52561,"lng":6.61787}}
{"name":"Koedijk","containingGeoEntity":"Netherlands","location":{"lat":52.670196,"lng":4.755254}}
{"name":"Marknesse","containingGeoEntity":"Netherlands","location":{"lat":52.70794,"lng":5.862713}}
{"name":"Bloemendaal","containingGeoEntity":"Netherlands","location":{"lat":52.403669,"lng":4.619793}}
{"name":"Homoet","containingGeoEntity":"Netherlands","location":{"lat":51.933744,"lng":5.792743}}
{"name":"Huijbergen","containingGeoEntity":"Netherlands","location":{"lat":51.4329,"lng":4.37688}}
{"name":"Doornenburg","containingGeoEntity":"Netherlands","location":{"lat":51.89014,"lng":6.00165}}
{"name":"Warder","containingGeoEntity":"Netherlands","location":{"lat":52.563923,"lng":5.031021}}
{"name":"Leimuiden","containingGeoEntity":"Netherlands","location":{"lat":52.223992,"lng":4.672436}}
{"name":"Emst","containingGeoEntity":"Netherlands","location":{"lat":52.318296,"lng":5.976056}}
{"name":"Westbroek","containingGeoEntity":"Netherlands","location":{"lat":52.15059,"lng":5.126111}}
{"name":"Noordhorn","containingGeoEntity":"Netherlands","location":{"lat":53.25935,"lng":6.395822}}
{"name":"Oostendam","containingGeoEntity":"Netherlands","location":{"lat":37.157696,"lng":-92.94763}}
{"name":"Neer","containingGeoEntity":"Netherlands","location":{"lat":33.74224,"lng":-117.116867}}
{"name":"Kootwijkerbroek","containingGeoEntity":"Netherlands","location":{"lat":52.151432,"lng":5.663259}}
{"name":"Brucht","containingGeoEntity":"Netherlands","location":{"lat":52.5503,"lng":6.61027}}
{"name":"Stolwijk","containingGeoEntity":"Netherlands","location":{"lat":51.9728,"lng":4.7747}}
{"name":"Vreeland","containingGeoEntity":"Netherlands","location":{"lat":52.209893,"lng":5.021718}}
{"name":"Gorredijk","containingGeoEntity":"Netherlands","location":{"lat":53.005808,"lng":6.064078}}
{"name":"Garmerwolde","containingGeoEntity":"Netherlands","location":{"lat":53.24752,"lng":6.64842}}
{"name":"Slijk-Ewijk","containingGeoEntity":"Netherlands","location":{"lat":39.853094,"lng":-94.181089}}
{"name":"Woltersum","containingGeoEntity":"Netherlands","location":{"lat":53.271119,"lng":6.732792}}
{"name":"Haulerwijk","containingGeoEntity":"Netherlands","location":{"lat":53.065468,"lng":6.330473}}
{"name":"Enspijk","containingGeoEntity":"Netherlands","location":{"lat":51.88338,"lng":5.21229}}
{"name":"Ophemert","containingGeoEntity":"Netherlands","location":{"lat":51.84418,"lng":5.38679}}
{"name":"Ilpendam","containingGeoEntity":"Netherlands","location":{"lat":52.466403,"lng":4.951595}}
{"name":"Nieuwleusen","containingGeoEntity":"Netherlands","location":{"lat":52.58293,"lng":6.28698}}
{"name":"Beerzerveld","containingGeoEntity":"Netherlands","location":{"lat":52.49437,"lng":6.57537}}
{"name":"IJsselmuiden","containingGeoEntity":"Netherlands","location":{"lat":52.563029,"lng":5.940405}}
{"name":"Uitdam","containingGeoEntity":"Netherlands","location":{"lat":52.419587,"lng":5.070786}}
{"name":"Eckart","containingGeoEntity":"Netherlands","location":{"lat":37.418036,"lng":-107.655817}}
{"name":"Breugel","containingGeoEntity":"Netherlands","location":{"lat":51.517397,"lng":5.509185}}
{"name":"Rips","containingGeoEntity":"Netherlands","location":{"lat":29.936027,"lng":-90.678794}}
{"name":"Brakel","containingGeoEntity":"Netherlands","location":{"lat":51.81726,"lng":5.09156}}
{"name":"Elst","containingGeoEntity":"Netherlands","location":{"lat":51.91579,"lng":5.83764}}
{"name":"Ochten","containingGeoEntity":"Netherlands","location":{"lat":51.90556,"lng":5.56216}}
{"name":"Randwijk","containingGeoEntity":"Netherlands","location":{"lat":51.948213,"lng":5.71622}}
{"name":"Hellouw","containingGeoEntity":"Netherlands","location":{"lat":51.82747,"lng":5.18036}}
{"name":"'t Harde","containingGeoEntity":"Netherlands","location":{"lat":52.417855,"lng":5.873091}}
{"name":"Lekkerkerk","containingGeoEntity":"Netherlands","location":{"lat":51.896943,"lng":4.683378}}
{"name":"Rhenoy","containingGeoEntity":"Netherlands","location":{"lat":51.88443,"lng":5.15372}}
{"name":"Lijnden","containingGeoEntity":"Netherlands","location":{"lat":52.351501,"lng":4.760668}}
{"name":"Wildervank","containingGeoEntity":"Netherlands","location":{"lat":36.63873,"lng":-93.433269}}
{"name":"Vledder","containingGeoEntity":"Netherlands","location":{"lat":52.85754,"lng":6.21013}}
{"name":"Rossum","containingGeoEntity":"Netherlands","location":{"lat":40.401235,"lng":-105.144073}}
{"name":"Zorgvlied","containingGeoEntity":"Netherlands","location":{"lat":52.92191,"lng":6.25501}}
{"name":"Ferwert","containingGeoEntity":"Netherlands","location":{"lat":53.335048,"lng":5.815036}}
{"name":"Bemelen","containingGeoEntity":"Netherlands","location":{"lat":50.847081,"lng":5.764098}}
{"name":"Callantsoog","containingGeoEntity":"Netherlands","location":{"lat":38.241421,"lng":-90.409038}}
{"name":"Princenhof","containingGeoEntity":"Netherlands","location":{"lat":38.261471,"lng":-92.259717}}
{"name":"Cadzand","containingGeoEntity":"Netherlands","location":{"lat":51.366258,"lng":3.410841}}
{"name":"Alem","containingGeoEntity":"Netherlands","location":{"lat":51.78777,"lng":5.34523}}
{"name":"Broekhuizen","containingGeoEntity":"Netherlands","location":{"lat":51.48776,"lng":6.16323}}
{"name":"Kaag","containingGeoEntity":"Netherlands","location":{"lat":52.21326,"lng":4.558331}}
{"name":"Ootmarsum","containingGeoEntity":"Netherlands","location":{"lat":52.406676,"lng":6.894645}}
{"name":"Groot-Agelo","containingGeoEntity":"Netherlands","location":{"lat":39.853094,"lng":-94.181089}}
{"name":"Oudewater","containingGeoEntity":"Netherlands","location":{"lat":52.024527,"lng":4.866287}}
{"name":"Vrouwenpolder","containingGeoEntity":"Netherlands","location":{"lat":38.642043,"lng":-90.352281}}
{"name":"Houtakker","containingGeoEntity":"Netherlands","location":{"lat":36.545682,"lng":-93.48704}}
{"name":"Ugchelen","containingGeoEntity":"Netherlands","location":{"lat":40.290695,"lng":-94.015152}}
{"name":"Molenaarsgraaf","containingGeoEntity":"Netherlands","location":{"lat":51.878273,"lng":4.828024}}
{"name":"Hekelingen","containingGeoEntity":"Netherlands","location":{"lat":51.826491,"lng":4.343505}}
{"name":"Tinte","containingGeoEntity":"Netherlands","location":{"lat":51.886853,"lng":4.134845}}
{"name":"Zwartewaal","containingGeoEntity":"Netherlands","location":{"lat":39.9644,"lng":-94.257909}}
{"name":"Heenvliet","containingGeoEntity":"Netherlands","location":{"lat":51.864554,"lng":4.242383}}
{"name":"Vierpolders","containingGeoEntity":"Netherlands","location":{"lat":38.761248,"lng":-90.514697}}
{"name":"Pannerden","containingGeoEntity":"Netherlands","location":{"lat":51.890516,"lng":6.036734}}
{"name":"Lobith","containingGeoEntity":"Netherlands","location":{"lat":51.878789,"lng":6.087106}}
{"name":"Babberich","containingGeoEntity":"Netherlands","location":{"lat":51.90724,"lng":6.11148}}
{"name":"Aerdt","containingGeoEntity":"Netherlands","location":{"lat":51.894596,"lng":6.082719}}
{"name":"Groenlo","containingGeoEntity":"Netherlands","location":{"lat":52.040754,"lng":6.611633}}
{"name":"Meerkerk","containingGeoEntity":"Netherlands","location":{"lat":51.92569,"lng":5.013349}}
{"name":"Alde Leie","containingGeoEntity":"Netherlands","location":{"lat":53.28961,"lng":5.7279}}
{"name":"Westerhoven","containingGeoEntity":"Netherlands","location":{"lat":51.33311,"lng":5.39633}}
{"name":"Rooth","containingGeoEntity":"Netherlands","location":{"lat":26.366438,"lng":-98.227381}}
{"name":"Wierum","containingGeoEntity":"Netherlands","location":{"lat":53.401273,"lng":6.015082}}
{"name":"Ballum","containingGeoEntity":"Netherlands","location":{"lat":53.45044,"lng":5.755397}}
{"name":"Alphen","containingGeoEntity":"Netherlands","location":{"lat":51.506896,"lng":4.87136}}
{"name":"Hoogmade","containingGeoEntity":"Netherlands","location":{"lat":38.719746,"lng":-90.337017}}
{"name":"Woubrugge","containingGeoEntity":"Netherlands","location":{"lat":52.169606,"lng":4.639225}}
{"name":"Noorden","containingGeoEntity":"Netherlands","location":{"lat":52.166266,"lng":4.827091}}
{"name":"Wagenberg","containingGeoEntity":"Netherlands","location":{"lat":51.665876,"lng":4.747474}}
{"name":"Lage Zwaluwe","containingGeoEntity":"Netherlands","location":{"lat":51.70831,"lng":4.70347}}
{"name":"Amerongen","containingGeoEntity":"Netherlands","location":{"lat":39.029127,"lng":-84.256455}}
{"name":"Breukeleveen","containingGeoEntity":"Netherlands","location":{"lat":52.17731,"lng":5.06932}}
{"name":"Tienhoven","containingGeoEntity":"Netherlands","location":{"lat":52.16818,"lng":5.081889}}
{"name":"Stationsbuurt","containingGeoEntity":"Netherlands","location":{"lat":51.423788,"lng":4.157689}}
{"name":"Beegden","containingGeoEntity":"Netherlands","location":{"lat":51.1912,"lng":5.91972}}
{"name":"Nunhem","containingGeoEntity":"Netherlands","location":{"lat":51.24485,"lng":5.96241}}
{"name":"Ell","containingGeoEntity":"Netherlands","location":{"lat":51.21984,"lng":5.79512}}
{"name":"Julianadorp","containingGeoEntity":"Netherlands","location":{"lat":52.892798,"lng":4.740743}}
{"name":"Breezand","containingGeoEntity":"Netherlands","location":{"lat":52.888626,"lng":4.803381}}
{"name":"Oudesluis","containingGeoEntity":"Netherlands","location":{"lat":52.833365,"lng":4.811335}}
{"name":"Zoutkamp","containingGeoEntity":"Netherlands","location":{"lat":53.336985,"lng":6.301295}}
{"name":"Steggerda","containingGeoEntity":"Netherlands","location":{"lat":52.861411,"lng":6.086248}}
{"name":"Mussel","containingGeoEntity":"Netherlands","location":{"lat":52.95673,"lng":7.03891}}
{"name":"Gieterveen","containingGeoEntity":"Netherlands","location":{"lat":53.025948,"lng":6.836278}}
{"name":"Garsthuizen","containingGeoEntity":"Netherlands","location":{"lat":39.015078,"lng":-94.240027}}
{"name":"Kropswolde","containingGeoEntity":"Netherlands","location":{"lat":53.146628,"lng":6.723741}}
{"name":"Aduard","containingGeoEntity":"Netherlands","location":{"lat":53.255902,"lng":6.459943}}
{"name":"Briltil","containingGeoEntity":"Netherlands","location":{"lat":53.243672,"lng":6.393751}}
{"name":"Oldekerk","containingGeoEntity":"Netherlands","location":{"lat":53.219634,"lng":6.33941}}
{"name":"Kommerzijl","containingGeoEntity":"Netherlands","location":{"lat":53.286319,"lng":6.323595}}
{"name":"Grootegast","containingGeoEntity":"Netherlands","location":{"lat":53.211356,"lng":6.274316}}
{"name":"Valthe","containingGeoEntity":"Netherlands","location":{"lat":52.84283,"lng":6.89085}}
{"name":"Pieterzijl","containingGeoEntity":"Netherlands","location":{"lat":53.281162,"lng":6.268528}}
{"name":"Opeinde","containingGeoEntity":"Netherlands","location":{"lat":53.134291,"lng":6.060169}}
{"name":"Glimmen","containingGeoEntity":"Netherlands","location":{"lat":53.138722,"lng":6.628281}}
{"name":"Scharmer","containingGeoEntity":"Netherlands","location":{"lat":37.038881,"lng":-93.31373}}
{"name":"Harkstede","containingGeoEntity":"Netherlands","location":{"lat":53.213737,"lng":6.700359}}
{"name":"Eelde-Paterswolde","containingGeoEntity":"Netherlands","location":{"lat":39.853094,"lng":-94.181089}}
{"name":"Enumatil","containingGeoEntity":"Netherlands","location":{"lat":53.2161,"lng":6.409498}}
{"name":"Tolbert","containingGeoEntity":"Netherlands","location":{"lat":53.17513,"lng":6.36697}}
{"name":"De Wilp","containingGeoEntity":"Netherlands","location":{"lat":53.118306,"lng":6.254314}}
{"name":"Noordlaren","containingGeoEntity":"Netherlands","location":{"lat":53.120856,"lng":6.666755}}
{"name":"Paterswolde","containingGeoEntity":"Netherlands","location":{"lat":53.15018,"lng":6.56751}}
{"name":"Onnen","containingGeoEntity":"Netherlands","location":{"lat":38.746895,"lng":-91.017662}}
{"name":"Diepenveen","containingGeoEntity":"Netherlands","location":{"lat":52.29332,"lng":6.1601}}
{"name":"Lettele","containingGeoEntity":"Netherlands","location":{"lat":52.27713,"lng":6.27177}}
{"name":"Nieuw-Schoonebeek","containingGeoEntity":"Netherlands","location":{"lat":52.64892,"lng":6.9875}}
{"name":"Schoonebeek","containingGeoEntity":"Netherlands","location":{"lat":52.66412,"lng":6.88476}}
{"name":"Noord-Sleen","containingGeoEntity":"Netherlands","location":{"lat":52.79315,"lng":6.79794}}
{"name":"Emmer-Compascuum","containingGeoEntity":"Netherlands","location":{"lat":52.8113,"lng":7.04618}}
{"name":"Klazienaveen","containingGeoEntity":"Netherlands","location":{"lat":52.724679,"lng":6.988659}}
{"name":"Oosterhesselen","containingGeoEntity":"Netherlands","location":{"lat":52.755228,"lng":6.719381}}
{"name":"Nieuwlande","containingGeoEntity":"Netherlands","location":{"lat":52.695804,"lng":6.610771}}
{"name":"Noordscheschut","containingGeoEntity":"Netherlands","location":{"lat":39.119918,"lng":-94.329388}}
{"name":"Stuifzand","containingGeoEntity":"Netherlands","location":{"lat":52.74798,"lng":6.50108}}
{"name":"Zuidwolde","containingGeoEntity":"Netherlands","location":{"lat":53.26073,"lng":6.59183}}
{"name":"Zwinderen","containingGeoEntity":"Netherlands","location":{"lat":52.72741,"lng":6.67684}}
{"name":"Hollandscheveld","containingGeoEntity":"Netherlands","location":{"lat":52.706375,"lng":6.533957}}
{"name":"Gramsbergen","containingGeoEntity":"Netherlands","location":{"lat":52.60966,"lng":6.66848}}
{"name":"Kloosterhaar","containingGeoEntity":"Netherlands","location":{"lat":52.495529,"lng":6.670163}}
{"name":"Slagharen","containingGeoEntity":"Netherlands","location":{"lat":52.62751,"lng":6.554586}}
{"name":"Sibculo","containingGeoEntity":"Netherlands","location":{"lat":52.48122,"lng":6.63611}}
{"name":"Vorstenbosch","containingGeoEntity":"Netherlands","location":{"lat":51.652104,"lng":5.551494}}
{"name":"Linne","containingGeoEntity":"Netherlands","location":{"lat":51.15535,"lng":5.94075}}
{"name":"Kolham","containingGeoEntity":"Netherlands","location":{"lat":53.182169,"lng":6.744626}}
{"name":"Beerta","containingGeoEntity":"Netherlands","location":{"lat":53.174491,"lng":7.09712}}
{"name":"Scheemda","containingGeoEntity":"Netherlands","location":{"lat":53.17783,"lng":6.971143}}
{"name":"Siddeburen","containingGeoEntity":"Netherlands","location":{"lat":53.24738,"lng":6.86523}}
{"name":"Havelte","containingGeoEntity":"Netherlands","location":{"lat":52.82847,"lng":6.311222}}
{"name":"Oosterwolde","containingGeoEntity":"Netherlands","location":{"lat":52.988978,"lng":6.290779}}
{"name":"Giethoorn","containingGeoEntity":"Netherlands","location":{"lat":52.74098,"lng":6.07753}}
{"name":"Koekange","containingGeoEntity":"Netherlands","location":{"lat":52.70189,"lng":6.31808}}
{"name":"Ruinerwold","containingGeoEntity":"Netherlands","location":{"lat":52.72173,"lng":6.24585}}
{"name":"Frederiksoord","containingGeoEntity":"Netherlands","location":{"lat":52.842489,"lng":6.184404}}
{"name":"IJhorst","containingGeoEntity":"Netherlands","location":{"lat":52.660786,"lng":6.291044}}
{"name":"Diever","containingGeoEntity":"Netherlands","location":{"lat":52.85712,"lng":6.3203}}
{"name":"Den Bommel","containingGeoEntity":"Netherlands","location":{"lat":51.717083,"lng":4.2807}}
{"name":"Ooltgensplaat","containingGeoEntity":"Netherlands","location":{"lat":51.682349,"lng":4.347306}}
{"name":"Lienden","containingGeoEntity":"Netherlands","location":{"lat":51.94586,"lng":5.51541}}
{"name":"Heilig Landstichting","containingGeoEntity":"Netherlands","location":{"lat":35.61985,"lng":-80.469545}}
{"name":"Berg en Dal","containingGeoEntity":"Netherlands","location":{"lat":38.515696,"lng":-91.007123}}
{"name":"Stroe","containingGeoEntity":"Netherlands","location":{"lat":52.9266,"lng":4.97609}}
{"name":"Herveld","containingGeoEntity":"Netherlands","location":{"lat":37.075769,"lng":-94.472457}}
{"name":"Franeker","containingGeoEntity":"Netherlands","location":{"lat":53.190451,"lng":5.541741}}
{"name":"Zuidermeer","containingGeoEntity":"Netherlands","location":{"lat":52.66399,"lng":4.97614}}
{"name":"Budel-Schoot","containingGeoEntity":"Netherlands","location":{"lat":51.24994,"lng":5.56611}}
{"name":"Oud-Ade","containingGeoEntity":"Netherlands","location":{"lat":52.191432,"lng":4.566039}}
{"name":"Nieuweschoot","containingGeoEntity":"Netherlands","location":{"lat":37.937825,"lng":-91.79246}}
{"name":"'t Kabel","containingGeoEntity":"Netherlands","location":{"lat":52.253866,"lng":4.652862}}
{"name":"Baken","containingGeoEntity":"Netherlands","location":{"lat":42.583818,"lng":-76.364419}}
{"name":"Halfweg","containingGeoEntity":"Netherlands","location":{"lat":52.405462,"lng":4.701191}}
{"name":"Zuid-Beijerland","containingGeoEntity":"Netherlands","location":{"lat":51.750695,"lng":4.36662}}
{"name":"Piershil","containingGeoEntity":"Netherlands","location":{"lat":51.766674,"lng":4.321845}}
{"name":"Hulshorst","containingGeoEntity":"Netherlands","location":{"lat":52.360597,"lng":5.720568}}
{"name":"Zaanstad","containingGeoEntity":"Netherlands","location":{"lat":52.468924,"lng":4.773784}}
{"name":"Bolsward","containingGeoEntity":"Netherlands","location":{"lat":53.062018,"lng":5.522896}}
{"name":"Ammerzoden","containingGeoEntity":"Netherlands","location":{"lat":51.74863,"lng":5.22487}}
{"name":"Laag-Soeren","containingGeoEntity":"Netherlands","location":{"lat":52.08454,"lng":6.0742}}
{"name":"Ressen","containingGeoEntity":"Netherlands","location":{"lat":38.226737,"lng":-92.72476}}
{"name":"Dorp","containingGeoEntity":"Netherlands","location":{"lat":40.811068,"lng":-73.404103}}
{"name":"Venhorst","containingGeoEntity":"Netherlands","location":{"lat":51.60573,"lng":5.73488}}
{"name":"Bourtange","containingGeoEntity":"Netherlands","location":{"lat":53.00915,"lng":7.18741}}
{"name":"Vlieland","containingGeoEntity":"Netherlands","location":{"lat":53.249205,"lng":4.939134}}
{"name":"Zwaagdijk-Oost","containingGeoEntity":"Netherlands","location":{"lat":39.853094,"lng":-94.181089}}
{"name":"Zuidzande","containingGeoEntity":"Netherlands","location":{"lat":51.341326,"lng":3.450647}}
{"name":"Otterlo","containingGeoEntity":"Netherlands","location":{"lat":52.101438,"lng":5.771809}}
{"name":"De Punt","containingGeoEntity":"Netherlands","location":{"lat":53.123374,"lng":6.601073}}
{"name":"Cruquius","containingGeoEntity":"Netherlands","location":{"lat":52.334893,"lng":4.637787}}
{"name":"De Klomp","containingGeoEntity":"Netherlands","location":{"lat":52.046903,"lng":5.573576}}
{"name":"Makkum","containingGeoEntity":"Netherlands","location":{"lat":53.057204,"lng":5.404657}}
{"name":"Fluitenberg","containingGeoEntity":"Netherlands","location":{"lat":52.736511,"lng":6.45258}}
{"name":"Buitenkaag","containingGeoEntity":"Netherlands","location":{"lat":52.22001,"lng":4.560095}}
{"name":"Terschuur","containingGeoEntity":"Netherlands","location":{"lat":52.16539,"lng":5.5195}}
{"name":"Rijckholt","containingGeoEntity":"Netherlands","location":{"lat":37.870393,"lng":-90.391267}}
{"name":"Nijnsel","containingGeoEntity":"Netherlands","location":{"lat":51.55224,"lng":5.48211}}
{"name":"Oeffelt","containingGeoEntity":"Netherlands","location":{"lat":51.698521,"lng":5.929992}}
{"name":"Zalk","containingGeoEntity":"Netherlands","location":{"lat":52.52154,"lng":6.01207}}
{"name":"Schiermonnikoog","containingGeoEntity":"Netherlands","location":{"lat":53.49146,"lng":6.226606}}
{"name":"Akersloot","containingGeoEntity":"Netherlands","location":{"lat":52.559617,"lng":4.732411}}
{"name":"Schin op Geul","containingGeoEntity":"Netherlands","location":{"lat":50.85154,"lng":5.87079}}
{"name":"Holwierde","containingGeoEntity":"Netherlands","location":{"lat":53.35778,"lng":6.87146}}
{"name":"Den Deijl","containingGeoEntity":"Netherlands","location":{"lat":38.888142,"lng":-94.26155}}
{"name":"Heeswijk-Dinther","containingGeoEntity":"Netherlands","location":{"lat":51.64965,"lng":5.47237}}
{"name":"Taarlo","containingGeoEntity":"Netherlands","location":{"lat":53.032524,"lng":6.626379}}
{"name":"Ruinen","containingGeoEntity":"Netherlands","location":{"lat":52.764141,"lng":6.359962}}
{"name":"Witharen","containingGeoEntity":"Netherlands","location":{"lat":52.56274,"lng":6.395683}}
{"name":"Vorden","containingGeoEntity":"Netherlands","location":{"lat":52.104121,"lng":6.312382}}
{"name":"Oldehove","containingGeoEntity":"Netherlands","location":{"lat":53.305344,"lng":6.394123}}
{"name":"Nijhuizum","containingGeoEntity":"Netherlands","location":{"lat":52.980044,"lng":5.485113}}
{"name":"Amstelhoek","containingGeoEntity":"Netherlands","location":{"lat":52.231224,"lng":4.834924}}
{"name":"Driel","containingGeoEntity":"Netherlands","location":{"lat":51.959269,"lng":5.816036}}
{"name":"Meer","containingGeoEntity":"Netherlands","location":{"lat":29.808972,"lng":-95.160659}}
{"name":"Burum","containingGeoEntity":"Netherlands","location":{"lat":53.27234,"lng":6.22918}}
{"name":"Ovezande","containingGeoEntity":"Netherlands","location":{"lat":51.42883,"lng":3.824353}}
{"name":"Beetsterzwaag","containingGeoEntity":"Netherlands","location":{"lat":53.059195,"lng":6.082168}}
{"name":"Dirkshorn","containingGeoEntity":"Netherlands","location":{"lat":52.74981,"lng":4.77901}}
{"name":"Keldonk","containingGeoEntity":"Netherlands","location":{"lat":51.58793,"lng":5.58616}}
{"name":"Sint Hubert","containingGeoEntity":"Netherlands","location":{"lat":51.67706,"lng":5.81006}}
{"name":"Limmel","containingGeoEntity":"Netherlands","location":{"lat":42.677875,"lng":-73.887527}}
{"name":"Waterland","containingGeoEntity":"Netherlands","location":{"lat":52.443273,"lng":5.058214}}
{"name":"Burgerveen","containingGeoEntity":"Netherlands","location":{"lat":52.239734,"lng":4.680731}}
{"name":"Anderen","containingGeoEntity":"Netherlands","location":{"lat":53.00122,"lng":6.68621}}
{"name":"Wijngaarden","containingGeoEntity":"Netherlands","location":{"lat":51.844595,"lng":4.762412}}
{"name":"Nieuw-Namen","containingGeoEntity":"Netherlands","location":{"lat":51.293205,"lng":4.162282}}
{"name":"Kuitaart","containingGeoEntity":"Netherlands","location":{"lat":51.34178,"lng":4.03404}}
{"name":"Rijpwetering","containingGeoEntity":"Netherlands","location":{"lat":52.193538,"lng":4.581838}}
{"name":"Oude Wetering","containingGeoEntity":"Netherlands","location":{"lat":52.215,"lng":4.6455}}
{"name":"Nieuwe Wetering","containingGeoEntity":"Netherlands","location":{"lat":52.209587,"lng":4.618469}}
{"name":"Nieuwehorne","containingGeoEntity":"Netherlands","location":{"lat":38.499475,"lng":-92.084261}}
{"name":"Den Ilp","containingGeoEntity":"Netherlands","location":{"lat":52.452187,"lng":4.908399}}
{"name":"Schoorl","containingGeoEntity":"Netherlands","location":{"lat":52.701371,"lng":4.694018}}
{"name":"Ten Post","containingGeoEntity":"Netherlands","location":{"lat":53.296673,"lng":6.731109}}
{"name":"Wagenborgen","containingGeoEntity":"Netherlands","location":{"lat":38.58063,"lng":-92.227937}}
{"name":"Legemeer","containingGeoEntity":"Netherlands","location":{"lat":52.93861,"lng":5.72646}}
{"name":"Sint Nicolaasga","containingGeoEntity":"Netherlands","location":{"lat":52.923064,"lng":5.741092}}
{"name":"Exloo","containingGeoEntity":"Netherlands","location":{"lat":52.88265,"lng":6.86452}}
{"name":"Veenhuizen","containingGeoEntity":"Netherlands","location":{"lat":43.486444,"lng":-88.718941}}
{"name":"Doenrade","containingGeoEntity":"Netherlands","location":{"lat":50.96841,"lng":5.90723}}
{"name":"Wijnandsrade","containingGeoEntity":"Netherlands","location":{"lat":38.824912,"lng":-91.139293}}
{"name":"Middelbeers","containingGeoEntity":"Netherlands","location":{"lat":51.44258,"lng":5.21276}}
{"name":"Achterberg","containingGeoEntity":"Netherlands","location":{"lat":51.97412,"lng":5.58751}}
{"name":"Zuiderpark","containingGeoEntity":"Netherlands","location":{"lat":38.915252,"lng":-94.428369}}
{"name":"Woensdrecht","containingGeoEntity":"Netherlands","location":{"lat":51.429721,"lng":4.297538}}
{"name":"Hollum","containingGeoEntity":"Netherlands","location":{"lat":53.441217,"lng":5.637772}}
{"name":"Hantum","containingGeoEntity":"Netherlands","location":{"lat":53.362917,"lng":5.964303}}
{"name":"Oudwoude","containingGeoEntity":"Netherlands","location":{"lat":38.209903,"lng":-91.391786}}
{"name":"De Falom","containingGeoEntity":"Netherlands","location":{"lat":53.261585,"lng":6.009181}}
{"name":"Hantumhuizen","containingGeoEntity":"Netherlands","location":{"lat":53.3722,"lng":5.99851}}
{"name":"Baarland","containingGeoEntity":"Netherlands","location":{"lat":39.337605,"lng":-94.224867}}
{"name":"Harlingen","containingGeoEntity":"Netherlands","location":{"lat":53.17521,"lng":5.4142}}
{"name":"Wijnaldum","containingGeoEntity":"Netherlands","location":{"lat":53.19539,"lng":5.46097}}
{"name":"Herbaijum","containingGeoEntity":"Netherlands","location":{"lat":39.308529,"lng":-91.478511}}
{"name":"Tzummarum","containingGeoEntity":"Netherlands","location":{"lat":53.237299,"lng":5.546006}}
{"name":"Oldeberkoop","containingGeoEntity":"Netherlands","location":{"lat":52.937612,"lng":6.127944}}
{"name":"Lippenhuizen","containingGeoEntity":"Netherlands","location":{"lat":43.486444,"lng":-88.718941}}
{"name":"Ravenswoud","containingGeoEntity":"Netherlands","location":{"lat":52.96446,"lng":6.37976}}
{"name":"Sintjohannesga","containingGeoEntity":"Netherlands","location":{"lat":52.93099,"lng":5.8551}}
{"name":"Rottum","containingGeoEntity":"Netherlands","location":{"lat":53.3821,"lng":6.62083}}
{"name":"West-Terschelling","containingGeoEntity":"Netherlands","location":{"lat":53.361301,"lng":5.215987}}
{"name":"Echten","containingGeoEntity":"Netherlands","location":{"lat":52.8733,"lng":5.7954}}
{"name":"Midlum","containingGeoEntity":"Netherlands","location":{"lat":53.184862,"lng":5.439546}}
{"name":"De Blesse","containingGeoEntity":"Netherlands","location":{"lat":52.844275,"lng":6.03892}}
{"name":"Oldeholtpade","containingGeoEntity":"Netherlands","location":{"lat":52.891305,"lng":6.042811}}
{"name":"Kimswerd","containingGeoEntity":"Netherlands","location":{"lat":53.141321,"lng":5.437521}}
{"name":"Wons","containingGeoEntity":"Netherlands","location":{"lat":53.084552,"lng":5.424412}}
{"name":"Pingjum","containingGeoEntity":"Netherlands","location":{"lat":53.115219,"lng":5.441514}}
{"name":"Hippolytushoef","containingGeoEntity":"Netherlands","location":{"lat":52.905794,"lng":4.96078}}
{"name":"Slootdorp","containingGeoEntity":"Netherlands","location":{"lat":52.84576,"lng":4.9684}}
{"name":"Kolhorn","containingGeoEntity":"Netherlands","location":{"lat":52.79488,"lng":4.89001}}
{"name":"Nieuwe-Niedorp","containingGeoEntity":"Netherlands","location":{"lat":52.737515,"lng":4.892553}}
{"name":"Zuid-Scharwoude","containingGeoEntity":"Netherlands","location":{"lat":52.69163,"lng":4.80921}}
{"name":"Hasselt","containingGeoEntity":"Netherlands","location":{"lat":52.591454,"lng":6.095369}}
{"name":"Urk","containingGeoEntity":"Netherlands","location":{"lat":52.665426,"lng":5.599095}}
{"name":"Rutten","containingGeoEntity":"Netherlands","location":{"lat":52.80497,"lng":5.69917}}
{"name":"Lemele","containingGeoEntity":"Netherlands","location":{"lat":52.45363,"lng":6.41362}}
{"name":"Lemelerveld","containingGeoEntity":"Netherlands","location":{"lat":52.444334,"lng":6.339813}}
{"name":"Blokzijl","containingGeoEntity":"Netherlands","location":{"lat":52.72604,"lng":5.96119}}
{"name":"Schagerbrug","containingGeoEntity":"Netherlands","location":{"lat":52.802113,"lng":4.759255}}
{"name":"Sint Maarten","containingGeoEntity":"Netherlands","location":{"lat":52.77366,"lng":4.744855}}
{"name":"Warmenhuizen","containingGeoEntity":"Netherlands","location":{"lat":52.72235,"lng":4.73467}}
{"name":"Groenveld","containingGeoEntity":"Netherlands","location":{"lat":43.041029,"lng":-86.141924}}
{"name":"Sleen","containingGeoEntity":"Netherlands","location":{"lat":52.77238,"lng":6.80314}}
{"name":"Nieuw-Amsterdam","containingGeoEntity":"Netherlands","location":{"lat":39.853094,"lng":-94.181089}}
{"name":"Nieuw-Dordrecht","containingGeoEntity":"Netherlands","location":{"lat":52.74877,"lng":6.967686}}
{"name":"Bennebroek","containingGeoEntity":"Netherlands","location":{"lat":52.32243,"lng":4.5935}}
{"name":"Rijsenhout","containingGeoEntity":"Netherlands","location":{"lat":52.257566,"lng":4.711708}}
{"name":"Aalsmeerderbrug","containingGeoEntity":"Netherlands","location":{"lat":52.273327,"lng":4.748729}}
{"name":"Abbenes","containingGeoEntity":"Netherlands","location":{"lat":52.23426,"lng":4.591373}}
{"name":"Zwaanshoek","containingGeoEntity":"Netherlands","location":{"lat":52.310259,"lng":4.617012}}
{"name":"Zwanenburg","containingGeoEntity":"Netherlands","location":{"lat":52.377864,"lng":4.743744}}
{"name":"Egmond-Binnen","containingGeoEntity":"Netherlands","location":{"lat":52.5969,"lng":4.65671}}
{"name":"Lutjewinkel","containingGeoEntity":"Netherlands","location":{"lat":52.767285,"lng":4.885863}}
{"name":"Wieringerwaard","containingGeoEntity":"Netherlands","location":{"lat":52.839,"lng":4.86249}}
{"name":"Driehuis","containingGeoEntity":"Netherlands","location":{"lat":52.44854,"lng":4.63855}}
{"name":"Saasveld","containingGeoEntity":"Netherlands","location":{"lat":52.33275,"lng":6.8067}}
{"name":"Weerselo","containingGeoEntity":"Netherlands","location":{"lat":52.35104,"lng":6.85402}}
{"name":"Lewenborg","containingGeoEntity":"Netherlands","location":{"lat":38.58063,"lng":-92.227937}}
{"name":"Ooij","containingGeoEntity":"Netherlands","location":{"lat":51.854477,"lng":5.938996}}
{"name":"Athens","containingGeoEntity":"Greece","location":{"lat":37.984149,"lng":23.727984}}
{"name":"Ekali","containingGeoEntity":"Greece","location":{"lat":41.013576,"lng":24.629788}}
{"name":"Thessaloniki","containingGeoEntity":"Greece","location":{"lat":40.640317,"lng":22.935272}}
{"name":"Chalcis","containingGeoEntity":"Greece","location":{"lat":43.211847,"lng":-77.649571}}
{"name":"Aegina","containingGeoEntity":"Greece","location":{"lat":37.746382,"lng":23.430499}}
{"name":"Rhodes","containingGeoEntity":"Greece","location":{"lat":36.437293,"lng":28.222848}}
{"name":"Kos","containingGeoEntity":"Greece","location":{"lat":36.894029,"lng":27.286664}}
{"name":"Rafina","containingGeoEntity":"Greece","location":{"lat":38.021688,"lng":24.007517}}
{"name":"Voula","containingGeoEntity":"Greece","location":{"lat":37.84546,"lng":23.761535}}
{"name":"Vouliagmeni","containingGeoEntity":"Greece","location":{"lat":42.333181,"lng":-75.775857}}
{"name":"Alimos","containingGeoEntity":"Greece","location":{"lat":37.911041,"lng":23.721483}}
{"name":"Glyfada","containingGeoEntity":"Greece","location":{"lat":37.861597,"lng":23.75459}}
{"name":"Corinth","containingGeoEntity":"Greece","location":{"lat":37.940162,"lng":22.926852}}
{"name":"Servia","containingGeoEntity":"Greece","location":{"lat":40.184917,"lng":22.000353}}
{"name":"Kozani","containingGeoEntity":"Greece","location":{"lat":40.298918,"lng":21.797201}}
{"name":"Serres","containingGeoEntity":"Greece","location":{"lat":41.091071,"lng":23.549803}}
{"name":"Panorama","containingGeoEntity":"Greece","location":{"lat":40.037869,"lng":21.177428}}
{"name":"Katerini","containingGeoEntity":"Greece","location":{"lat":40.271257,"lng":22.50888}}
{"name":"Larisa","containingGeoEntity":"Greece","location":{"lat":39.636993,"lng":22.417088}}
{"name":"Elassona","containingGeoEntity":"Greece","location":{"lat":39.893917,"lng":22.189257}}
{"name":"Komotini","containingGeoEntity":"Greece","location":{"lat":41.117833,"lng":25.404131}}
{"name":"Alexandroupoli","containingGeoEntity":"Greece","location":{"lat":40.845692,"lng":25.875328}}
{"name":"Metaxades","containingGeoEntity":"Greece","location":{"lat":41.420372,"lng":26.225042}}
{"name":"Marathon","containingGeoEntity":"Greece","location":{"lat":38.156757,"lng":23.961062}}
{"name":"Filothei","containingGeoEntity":"Greece","location":{"lat":38.024356,"lng":23.778052}}
{"name":"Paiania","containingGeoEntity":"Greece","location":{"lat":37.95386,"lng":23.852494}}
{"name":"Tinos","containingGeoEntity":"Greece","location":{"lat":37.538501,"lng":25.161702}}
{"name":"Psychiko","containingGeoEntity":"Greece","location":{"lat":41.527075,"lng":-73.936367}}
{"name":"Megalochari","containingGeoEntity":"Greece","location":{"lat":43.248195,"lng":-77.657333}}
{"name":"Kallithea","containingGeoEntity":"Greece","location":{"lat":37.956011,"lng":23.703379}}
{"name":"Pallini","containingGeoEntity":"Greece","location":{"lat":38.004242,"lng":23.881354}}
{"name":"Nikaia","containingGeoEntity":"Greece","location":{"lat":37.979129,"lng":23.635819}}
{"name":"Ioannina","containingGeoEntity":"Greece","location":{"lat":39.663982,"lng":20.852278}}
{"name":"Loutraki","containingGeoEntity":"Greece","location":{"lat":37.974669,"lng":22.97983}}
{"name":"Aliartos","containingGeoEntity":"Greece","location":{"lat":38.375524,"lng":23.107409}}
{"name":"Argos","containingGeoEntity":"Greece","location":{"lat":37.635311,"lng":22.725952}}
{"name":"Kilkis","containingGeoEntity":"Greece","location":{"lat":40.993587,"lng":22.874146}}
{"name":"Lamia","containingGeoEntity":"Greece","location":{"lat":38.895338,"lng":22.435002}}
{"name":"Heraklion","containingGeoEntity":"Greece","location":{"lat":35.334013,"lng":25.132854}}
{"name":"Cholargos","containingGeoEntity":"Greece","location":{"lat":37.991123,"lng":23.812343}}
{"name":"Agrinio","containingGeoEntity":"Greece","location":{"lat":38.624771,"lng":21.409504}}
{"name":"Markopoulo Mesogaias","containingGeoEntity":"Greece","location":{"lat":41.229581,"lng":-74.287609}}
{"name":"Piraeus","containingGeoEntity":"Greece","location":{"lat":37.944011,"lng":23.648354}}
{"name":"Keratsini","containingGeoEntity":"Greece","location":{"lat":37.970643,"lng":23.617577}}
{"name":"Aigaleo","containingGeoEntity":"Greece","location":{"lat":43.23966,"lng":-77.626386}}
{"name":"Pï¿½trai","containingGeoEntity":"Greece","location":{"lat":43.205495,"lng":-77.720942}}
{"name":"Aigio","containingGeoEntity":"Greece","location":{"lat":38.249607,"lng":22.083046}}
{"name":"Messolonghi","containingGeoEntity":"Greece","location":{"lat":38.368785,"lng":21.428299}}
{"name":"Karditsa","containingGeoEntity":"Greece","location":{"lat":39.36346,"lng":21.921119}}
{"name":"Corfu","containingGeoEntity":"Greece","location":{"lat":39.624247,"lng":19.921043}}
{"name":"Lefkada","containingGeoEntity":"Greece","location":{"lat":38.833929,"lng":20.706972}}
{"name":"Chania","containingGeoEntity":"Greece","location":{"lat":35.509519,"lng":24.032217}}
{"name":"Veroia","containingGeoEntity":"Greece","location":{"lat":40.521534,"lng":22.203683}}
{"name":"Giannitsa","containingGeoEntity":"Greece","location":{"lat":40.792949,"lng":22.414036}}
{"name":"Vergina","containingGeoEntity":"Greece","location":{"lat":40.487177,"lng":22.317283}}
{"name":"Ptolemaida","containingGeoEntity":"Greece","location":{"lat":40.512235,"lng":21.678552}}
{"name":"Xanthi","containingGeoEntity":"Greece","location":{"lat":41.138029,"lng":24.886269}}
{"name":"Kavala","containingGeoEntity":"Greece","location":{"lat":40.93689,"lng":24.412266}}
{"name":"Sparta","containingGeoEntity":"Greece","location":{"lat":37.075059,"lng":22.431123}}
{"name":"Moires","containingGeoEntity":"Greece","location":{"lat":35.04972,"lng":24.87444}}
{"name":"Kalamata","containingGeoEntity":"Greece","location":{"lat":37.037758,"lng":22.110939}}
{"name":"Nea Peramos","containingGeoEntity":"Greece","location":{"lat":38.003208,"lng":23.419024}}
{"name":"Chios","containingGeoEntity":"Greece","location":{"lat":38.371621,"lng":26.134205}}
{"name":"Perama","containingGeoEntity":"Greece","location":{"lat":39.693234,"lng":20.846667}}
{"name":"Attica","containingGeoEntity":"Greece","location":{"lat":42.872585,"lng":-78.298734}}
{"name":"Magoula","containingGeoEntity":"Greece","location":{"lat":38.079336,"lng":23.52285}}
{"name":"Elliniko","containingGeoEntity":"Greece","location":{"lat":35.492433,"lng":23.825867}}
{"name":"Nafplion","containingGeoEntity":"Greece","location":{"lat":37.569697,"lng":22.808078}}
{"name":"Salamina","containingGeoEntity":"Greece","location":{"lat":37.921532,"lng":23.468022}}
{"name":"Ayios Stefanos","containingGeoEntity":"Greece","location":{"lat":43.264034,"lng":-77.714238}}
{"name":"Galatsi","containingGeoEntity":"Greece","location":{"lat":37.764797,"lng":-122.220106}}
{"name":"Kymi","containingGeoEntity":"Greece","location":{"lat":38.635899,"lng":24.103671}}
{"name":"Elefsina","containingGeoEntity":"Greece","location":{"lat":38.047608,"lng":23.534866}}
{"name":"Aspropyrgos","containingGeoEntity":"Greece","location":{"lat":38.061372,"lng":23.591301}}
{"name":"Nea Ionia","containingGeoEntity":"Greece","location":{"lat":38.039324,"lng":23.757572}}
{"name":"Kifissia","containingGeoEntity":"Greece","location":{"lat":38.091573,"lng":23.821732}}
{"name":"Farsala","containingGeoEntity":"Greece","location":{"lat":39.294961,"lng":22.384792}}
{"name":"Amaliada","containingGeoEntity":"Greece","location":{"lat":37.797131,"lng":21.35145}}
{"name":"Pefki","containingGeoEntity":"Greece","location":{"lat":38.066667,"lng":23.8}}
{"name":"Nea Makri","containingGeoEntity":"Greece","location":{"lat":38.086737,"lng":23.97747}}
{"name":"Alexandreia","containingGeoEntity":"Greece","location":{"lat":40.628077,"lng":22.444074}}
{"name":"Melissia","containingGeoEntity":"Greece","location":{"lat":38.049999,"lng":23.8333}}
{"name":"Volos","containingGeoEntity":"Greece","location":{"lat":39.362741,"lng":22.940032}}
{"name":"Sindos","containingGeoEntity":"Greece","location":{"lat":44.497132,"lng":-68.25413}}
{"name":"Kalamaria","containingGeoEntity":"Greece","location":{"lat":40.576383,"lng":22.958394}}
{"name":"Goumenissa","containingGeoEntity":"Greece","location":{"lat":40.946644,"lng":22.451941}}
{"name":"Kastoria","containingGeoEntity":"Greece","location":{"lat":40.517156,"lng":21.268844}}
{"name":"Florina","containingGeoEntity":"Greece","location":{"lat":40.782918,"lng":21.413896}}
{"name":"Vari","containingGeoEntity":"Greece","location":{"lat":37.83321,"lng":23.802739}}
{"name":"Skala","containingGeoEntity":"Greece","location":{"lat":36.851657,"lng":22.664961}}
{"name":"Chania","containingGeoEntity":"Greece","location":{"lat":35.509519,"lng":24.032217}}
{"name":"Kaisariani","containingGeoEntity":"Greece","location":{"lat":37.958055,"lng":23.799101}}
{"name":"Igoumenitsa","containingGeoEntity":"Greece","location":{"lat":39.504529,"lng":20.265092}}
{"name":"Ierapetra","containingGeoEntity":"Greece","location":{"lat":35.011662,"lng":25.74185}}
{"name":"Ialysos","containingGeoEntity":"Greece","location":{"lat":36.415588,"lng":28.158234}}
{"name":"Patmos","containingGeoEntity":"Greece","location":{"lat":37.32403,"lng":26.538965}}
{"name":"Kassiopi","containingGeoEntity":"Greece","location":{"lat":43.203631,"lng":-77.645883}}
{"name":"Anavyssos","containingGeoEntity":"Greece","location":{"lat":37.736644,"lng":23.949438}}
{"name":"Koropi","containingGeoEntity":"Greece","location":{"lat":37.899765,"lng":23.873629}}
{"name":"Trikala","containingGeoEntity":"Greece","location":{"lat":39.556087,"lng":21.767884}}
{"name":"Varkiza","containingGeoEntity":"Greece","location":{"lat":43.262588,"lng":-77.701673}}
{"name":"Andravida","containingGeoEntity":"Greece","location":{"lat":37.907646,"lng":21.269662}}
{"name":"Kranidi","containingGeoEntity":"Greece","location":{"lat":37.380462,"lng":23.158853}}
{"name":"Hydra","containingGeoEntity":"Greece","location":{"lat":33.157362,"lng":-117.196292}}
{"name":"Xylokastro","containingGeoEntity":"Greece","location":{"lat":38.078006,"lng":22.63147}}
{"name":"Nea Kios","containingGeoEntity":"Greece","location":{"lat":37.588451,"lng":22.743909}}
{"name":"Tripoli","containingGeoEntity":"Greece","location":{"lat":37.51021,"lng":22.37244}}
{"name":"Ano Liosia","containingGeoEntity":"Greece","location":{"lat":38.083333,"lng":23.7}}
{"name":"Peristeri","containingGeoEntity":"Greece","location":{"lat":38.011935,"lng":23.688931}}
{"name":"Orestiada","containingGeoEntity":"Greece","location":{"lat":41.503638,"lng":26.528601}}
{"name":"Keratea","containingGeoEntity":"Greece","location":{"lat":37.80835,"lng":23.977697}}
{"name":"Kouvaras","containingGeoEntity":"Greece","location":{"lat":37.82793,"lng":23.968602}}
{"name":"Porto Rafti","containingGeoEntity":"Greece","location":{"lat":42.256892,"lng":-73.961055}}
{"name":"Paloukia","containingGeoEntity":"Greece","location":{"lat":37.964384,"lng":23.525558}}
{"name":"Dafni","containingGeoEntity":"Greece","location":{"lat":37.950289,"lng":23.732635}}
{"name":"Eretria","containingGeoEntity":"Greece","location":{"lat":38.392271,"lng":23.795281}}
{"name":"Thebes","containingGeoEntity":"Greece","location":{"lat":38.321608,"lng":23.321426}}
{"name":"Pyrgos","containingGeoEntity":"Greece","location":{"lat":37.671185,"lng":21.442281}}
{"name":"Rio","containingGeoEntity":"Greece","location":{"lat":30.544918,"lng":-98.365273}}
{"name":"Mandra","containingGeoEntity":"Greece","location":{"lat":38.07433,"lng":23.497261}}
{"name":"Megara","containingGeoEntity":"Greece","location":{"lat":37.995254,"lng":23.341786}}
{"name":"Peristeri","containingGeoEntity":"Greece","location":{"lat":38.011935,"lng":23.688931}}
{"name":"Argyroupoli","containingGeoEntity":"Greece","location":{"lat":37.908203,"lng":23.757571}}
{"name":"Thermi","containingGeoEntity":"Greece","location":{"lat":40.565194,"lng":23.021292}}
{"name":"Arta","containingGeoEntity":"Greece","location":{"lat":39.161555,"lng":20.98585}}
{"name":"Lefkimmi","containingGeoEntity":"Greece","location":{"lat":39.422776,"lng":20.062872}}
{"name":"Parga","containingGeoEntity":"Greece","location":{"lat":39.285257,"lng":20.399817}}
{"name":"Preveza","containingGeoEntity":"Greece","location":{"lat":38.958996,"lng":20.74967}}
{"name":"Litochoro","containingGeoEntity":"Greece","location":{"lat":40.101112,"lng":22.500691}}
{"name":"Naxos","containingGeoEntity":"Greece","location":{"lat":37.105323,"lng":25.377156}}
{"name":"Spata","containingGeoEntity":"Greece","location":{"lat":37.963252,"lng":23.914571}}
{"name":"Nea Smyrni","containingGeoEntity":"Greece","location":{"lat":42.953447,"lng":-74.176677}}
{"name":"Mytilene","containingGeoEntity":"Greece","location":{"lat":39.10612,"lng":26.553834}}
{"name":"Zakynthos","containingGeoEntity":"Greece","location":{"lat":37.782506,"lng":20.895032}}
{"name":"Argostoli","containingGeoEntity":"Greece","location":{"lat":38.173542,"lng":20.487822}}
{"name":"Lixouri","containingGeoEntity":"Greece","location":{"lat":38.201295,"lng":20.437366}}
{"name":"Nafpaktos","containingGeoEntity":"Greece","location":{"lat":38.392596,"lng":21.828764}}
{"name":"Oropos","containingGeoEntity":"Greece","location":{"lat":38.302905,"lng":23.753539}}
{"name":"Drama","containingGeoEntity":"Greece","location":{"lat":41.150047,"lng":24.146689}}
{"name":"Kalymnos","containingGeoEntity":"Greece","location":{"lat":36.951579,"lng":26.982073}}
{"name":"Kalamos","containingGeoEntity":"Greece","location":{"lat":39.222086,"lng":23.186985}}
{"name":"Mesagros","containingGeoEntity":"Greece","location":{"lat":43.192904,"lng":-77.653227}}
{"name":"Skiathos","containingGeoEntity":"Greece","location":{"lat":39.164812,"lng":23.487018}}
{"name":"Skala Oropou","containingGeoEntity":"Greece","location":{"lat":38.32078,"lng":23.79051}}
{"name":"Makrygialos","containingGeoEntity":"Greece","location":{"lat":35.037209,"lng":25.972345}}
{"name":"Samothraki","containingGeoEntity":"Greece","location":{"lat":40.451154,"lng":25.585657}}
{"name":"Ormylia","containingGeoEntity":"Greece","location":{"lat":40.292891,"lng":23.54437}}
{"name":"Pella","containingGeoEntity":"Greece","location":{"lat":40.761483,"lng":22.525763}}
{"name":"Pylaia","containingGeoEntity":"Greece","location":{"lat":40.600556,"lng":22.9875}}
{"name":"Rethymno","containingGeoEntity":"Greece","location":{"lat":35.367647,"lng":24.473608}}
{"name":"Filippiada","containingGeoEntity":"Greece","location":{"lat":39.205348,"lng":20.882992}}
{"name":"Nea Alikarnassos","containingGeoEntity":"Greece","location":{"lat":43.218065,"lng":-77.640519}}
{"name":"Lykovrysi","containingGeoEntity":"Greece","location":{"lat":38.066601,"lng":23.7833}}
{"name":"Nea Filadelfeia","containingGeoEntity":"Greece","location":{"lat":38.044926,"lng":23.740943}}
{"name":"Pikermi","containingGeoEntity":"Greece","location":{"lat":38.002215,"lng":23.940465}}
{"name":"Kamatero","containingGeoEntity":"Greece","location":{"lat":38.061635,"lng":23.709031}}
{"name":"Gonnoi","containingGeoEntity":"Greece","location":{"lat":39.861347,"lng":22.476593}}
{"name":"Agioi Anargyroi","containingGeoEntity":"Greece","location":{"lat":38.03266,"lng":23.725641}}
{"name":"Archaia Nemea","containingGeoEntity":"Greece","location":{"lat":37.804597,"lng":22.701757}}
{"name":"Polichni","containingGeoEntity":"Greece","location":{"lat":40.670364,"lng":22.958773}}
{"name":"Platy","containingGeoEntity":"Greece","location":{"lat":40.641217,"lng":22.534246}}
{"name":"Dionysos","containingGeoEntity":"Greece","location":{"lat":33.523508,"lng":-90.195548}}
{"name":"Kryonerion","containingGeoEntity":"Greece","location":{"lat":43.209316,"lng":-77.665651}}
{"name":"Symi","containingGeoEntity":"Greece","location":{"lat":36.613285,"lng":27.838021}}
{"name":"Agios Nikolaos","containingGeoEntity":"Greece","location":{"lat":35.189718,"lng":25.718944}}
{"name":"Tavros","containingGeoEntity":"Greece","location":{"lat":37.969574,"lng":23.693018}}
{"name":"Leontario","containingGeoEntity":"Greece","location":{"lat":43.237504,"lng":-77.650048}}
{"name":"Naousa","containingGeoEntity":"Greece","location":{"lat":40.630652,"lng":22.069808}}
{"name":"Valencia","containingGeoEntity":"Spain","location":{"lat":39.469901,"lng":-0.375951}}
{"name":"Riola","containingGeoEntity":"Spain","location":{"lat":39.197426,"lng":-0.334858}}
{"name":"Barcelona","containingGeoEntity":"Spain","location":{"lat":41.38256,"lng":2.177135}}
{"name":"Montornï¿½ï¿½s del Vallï¿½ï¿½s","containingGeoEntity":"Spain","location":{"lat":45.826737,"lng":-97.580496}}
{"name":"Begues","containingGeoEntity":"Spain","location":{"lat":41.333896,"lng":1.92167}}
{"name":"Terrassa","containingGeoEntity":"Spain","location":{"lat":41.56973,"lng":2.013207}}
{"name":"Sant Cugat del Vallï¿½ï¿½s","containingGeoEntity":"Spain","location":{"lat":43.808561,"lng":-96.71294}}
{"name":"l'Hospitalet de l'Infant","containingGeoEntity":"Spain","location":{"lat":45.340458,"lng":-97.521273}}
{"name":"Vallirana","containingGeoEntity":"Spain","location":{"lat":41.387762,"lng":1.932081}}
{"name":"Blanes","containingGeoEntity":"Spain","location":{"lat":41.675618,"lng":2.793239}}
{"name":"el Prat de Llobregat","containingGeoEntity":"Spain","location":{"lat":41.324633,"lng":2.095257}}
{"name":"Cornellï¿½  de Llobregat","containingGeoEntity":"Spain","location":{"lat":44.030713,"lng":-103.264104}}
{"name":"Sant Just Desvern","containingGeoEntity":"Spain","location":{"lat":41.381583,"lng":2.075068}}
{"name":"Gava","containingGeoEntity":"Spain","location":{"lat":41.305093,"lng":2.006313}}
{"name":"Pallejï¿½ ","containingGeoEntity":"Spain","location":{"lat":44.560709,"lng":-100.490289}}
{"name":"Castelldefels","containingGeoEntity":"Spain","location":{"lat":41.286102,"lng":1.982417}}
{"name":"Madrid","containingGeoEntity":"Spain","location":{"lat":40.416705,"lng":-3.703583}}
{"name":"Leganï¿½ï¿½s","containingGeoEntity":"Spain","location":{"lat":43.302899,"lng":-103.82869}}
{"name":"Villaviciosa de Odon","containingGeoEntity":"Spain","location":{"lat":40.357379,"lng":-3.900233}}
{"name":"Alcorcï¿½ï¿½n","containingGeoEntity":"Spain","location":{"lat":45.79132,"lng":-97.754914}}
{"name":"Valdemoro","containingGeoEntity":"Spain","location":{"lat":33.75938,"lng":-116.238327}}
{"name":"Mostoles","containingGeoEntity":"Spain","location":{"lat":40.323853,"lng":-3.864921}}
{"name":"Cobena","containingGeoEntity":"Spain","location":{"lat":40.567608,"lng":-3.504857}}
{"name":"Getafe","containingGeoEntity":"Spain","location":{"lat":40.308181,"lng":-3.730268}}
{"name":"Aranjuez","containingGeoEntity":"Spain","location":{"lat":40.032235,"lng":-3.603968}}
{"name":"Humanes de Madrid","containingGeoEntity":"Spain","location":{"lat":40.250885,"lng":-3.8271}}
{"name":"Las Rozas de Madrid","containingGeoEntity":"Spain","location":{"lat":40.49331,"lng":-3.87584}}
{"name":"Arroyomolinos","containingGeoEntity":"Spain","location":{"lat":39.185599,"lng":-6.163063}}
{"name":"Colmenar Viejo","containingGeoEntity":"Spain","location":{"lat":40.65879,"lng":-3.766321}}
{"name":"Santa Cruz","containingGeoEntity":"Spain","location":{"lat":42.241566,"lng":-7.427915}}
{"name":"Majadahonda","containingGeoEntity":"Spain","location":{"lat":43.466382,"lng":-96.763125}}
{"name":"Fuenlabrada","containingGeoEntity":"Spain","location":{"lat":40.282476,"lng":-3.792342}}
{"name":"Arucas","containingGeoEntity":"Spain","location":{"lat":28.118449,"lng":-15.523224}}
{"name":"Las Palmas de Gran Canaria","containingGeoEntity":"Spain","location":{"lat":28.12878,"lng":-15.435051}}
{"name":"Badalona","containingGeoEntity":"Spain","location":{"lat":41.449354,"lng":2.248254}}
{"name":"Collado Villalba","containingGeoEntity":"Spain","location":{"lat":40.629137,"lng":-4.013937}}
{"name":"Villamanta","containingGeoEntity":"Spain","location":{"lat":40.299094,"lng":-4.10904}}
{"name":"Alcobendas","containingGeoEntity":"Spain","location":{"lat":40.540008,"lng":-3.635849}}
{"name":"Alcalï¿½ de Henares","containingGeoEntity":"Spain","location":{"lat":40.406854,"lng":-3.710633}}
{"name":"Torrelodones","containingGeoEntity":"Spain","location":{"lat":40.578143,"lng":-3.926283}}
{"name":"Illescas","containingGeoEntity":"Spain","location":{"lat":40.124844,"lng":-3.849269}}
{"name":"Sesena","containingGeoEntity":"Spain","location":{"lat":40.104827,"lng":-3.696309}}
{"name":"Mataelpino","containingGeoEntity":"Spain","location":{"lat":44.037434,"lng":-103.541094}}
{"name":"Villalbilla","containingGeoEntity":"Spain","location":{"lat":40.432471,"lng":-3.298618}}
{"name":"Pinto","containingGeoEntity":"Spain","location":{"lat":40.240985,"lng":-3.700507}}
{"name":"Moralzarzal","containingGeoEntity":"Spain","location":{"lat":40.679144,"lng":-3.972099}}
{"name":"Ciempozuelos","containingGeoEntity":"Spain","location":{"lat":40.158009,"lng":-3.620551}}
{"name":"San Sebastiï¿½n de los Reyes","containingGeoEntity":"Spain","location":{"lat":47.644709,"lng":-117.628139}}
{"name":"Galapagar","containingGeoEntity":"Spain","location":{"lat":40.575919,"lng":-4.004041}}
{"name":"Parla","containingGeoEntity":"Spain","location":{"lat":40.237395,"lng":-3.77189}}
{"name":"Toledo","containingGeoEntity":"Spain","location":{"lat":39.856068,"lng":-4.023957}}
{"name":"San Martin de la Vega","containingGeoEntity":"Spain","location":{"lat":40.209615,"lng":-3.574942}}
{"name":"Coslada","containingGeoEntity":"Spain","location":{"lat":40.423802,"lng":-3.555288}}
{"name":"Arganda","containingGeoEntity":"Spain","location":{"lat":42.641109,"lng":-6.685411}}
{"name":"Hoyo de Manzanares","containingGeoEntity":"Spain","location":{"lat":40.621612,"lng":-3.909132}}
{"name":"Los Hueros","containingGeoEntity":"Spain","location":{"lat":35.901294,"lng":-105.98861}}
{"name":"Los Molinos","containingGeoEntity":"Spain","location":{"lat":42.548714,"lng":-6.878323}}
{"name":"Torres de la Alameda","containingGeoEntity":"Spain","location":{"lat":40.398509,"lng":-3.363057}}
{"name":"Tarragona","containingGeoEntity":"Spain","location":{"lat":41.117236,"lng":1.254606}}
{"name":"les Borges del Camp","containingGeoEntity":"Spain","location":{"lat":41.171586,"lng":1.020442}}
{"name":"Jesus","containingGeoEntity":"Spain","location":{"lat":34.929776,"lng":-112.554723}}
{"name":"Reus","containingGeoEntity":"Spain","location":{"lat":41.155556,"lng":1.107613}}
{"name":"Santa Coloma de Queralt","containingGeoEntity":"Spain","location":{"lat":41.532099,"lng":1.388422}}
{"name":"Cambrils","containingGeoEntity":"Spain","location":{"lat":42.132691,"lng":1.455106}}
{"name":"Cartagena","containingGeoEntity":"Spain","location":{"lat":37.626787,"lng":-1.000618}}
{"name":"Murcia","containingGeoEntity":"Spain","location":{"lat":37.99238,"lng":-1.130543}}
{"name":"Lorca","containingGeoEntity":"Spain","location":{"lat":37.671568,"lng":-1.698805}}
{"name":"Balsicas","containingGeoEntity":"Spain","location":{"lat":43.713601,"lng":-98.085455}}
{"name":"Villafranca","containingGeoEntity":"Spain","location":{"lat":42.277457,"lng":-1.74739}}
{"name":"Boadilla del Monte","containingGeoEntity":"Spain","location":{"lat":40.405349,"lng":-3.876466}}
{"name":"Valdilecha","containingGeoEntity":"Spain","location":{"lat":40.292685,"lng":-3.30021}}
{"name":"Villanueva del Pardillo","containingGeoEntity":"Spain","location":{"lat":40.494923,"lng":-3.960007}}
{"name":"Portillo de Toledo","containingGeoEntity":"Spain","location":{"lat":40.062634,"lng":-4.22734}}
{"name":"Villanueva de la Canada","containingGeoEntity":"Spain","location":{"lat":40.447211,"lng":-4.002795}}
{"name":"Grinon","containingGeoEntity":"Spain","location":{"lat":40.213661,"lng":-3.858148}}
{"name":"El Alamo","containingGeoEntity":"Spain","location":{"lat":37.843048,"lng":-122.009501}}
{"name":"Torrejon de la Calzada","containingGeoEntity":"Spain","location":{"lat":40.20068,"lng":-3.79933}}
{"name":"Monte","containingGeoEntity":"Spain","location":{"lat":42.833315,"lng":-8.569678}}
{"name":"Brunete","containingGeoEntity":"Spain","location":{"lat":40.40505,"lng":-3.997991}}
{"name":"Cerceda","containingGeoEntity":"Spain","location":{"lat":43.162637,"lng":-8.503476}}
{"name":"Chinchï¿½ï¿½n","containingGeoEntity":"Spain","location":{"lat":43.275638,"lng":-124.318494}}
{"name":"Sevilla La Nueva","containingGeoEntity":"Spain","location":{"lat":40.348172,"lng":-4.028106}}
{"name":"L'Hospitalet de Llobregat","containingGeoEntity":"Spain","location":{"lat":41.35986,"lng":2.099793}}
{"name":"Cervello","containingGeoEntity":"Spain","location":{"lat":41.396419,"lng":1.958593}}
{"name":"Granollers","containingGeoEntity":"Spain","location":{"lat":41.607956,"lng":2.287601}}
{"name":"Navalcarnero","containingGeoEntity":"Spain","location":{"lat":40.287717,"lng":-4.014299}}
{"name":"Pozuelo de Alarcï¿½ï¿½n","containingGeoEntity":"Spain","location":{"lat":37.716435,"lng":-120.350573}}
{"name":"Robledo de Chavela","containingGeoEntity":"Spain","location":{"lat":40.498352,"lng":-4.239741}}
{"name":"El Escorial","containingGeoEntity":"Spain","location":{"lat":40.583641,"lng":-4.128143}}
{"name":"Campo Real","containingGeoEntity":"Spain","location":{"lat":40.338188,"lng":-3.381391}}
{"name":"Nuevo Baztan","containingGeoEntity":"Spain","location":{"lat":40.357406,"lng":-3.268198}}
{"name":"Torrejï¿½ï¿½n de Ardoz","containingGeoEntity":"Spain","location":{"lat":45.826737,"lng":-97.580496}}
{"name":"Perales del Alfambra","containingGeoEntity":"Spain","location":{"lat":40.634404,"lng":-1.001873}}
{"name":"Becerril de la Sierra","containingGeoEntity":"Spain","location":{"lat":40.716337,"lng":-3.989068}}
{"name":"Colmenarejo","containingGeoEntity":"Spain","location":{"lat":43.480347,"lng":-96.652859}}
{"name":"San Martin de Valdeiglesias","containingGeoEntity":"Spain","location":{"lat":40.3625,"lng":-4.39865}}
{"name":"Colmenar del Arroyo","containingGeoEntity":"Spain","location":{"lat":40.418,"lng":-4.197277}}
{"name":"Batres","containingGeoEntity":"Spain","location":{"lat":40.209139,"lng":-3.921595}}
{"name":"Las Ventas de Retamosa","containingGeoEntity":"Spain","location":{"lat":40.154537,"lng":-4.114559}}
{"name":"Las Matas","containingGeoEntity":"Spain","location":{"lat":29.477828,"lng":-95.61818}}
{"name":"Rubï¿½","containingGeoEntity":"Spain","location":{"lat":41.524804,"lng":-71.384709}}
{"name":"Gelida","containingGeoEntity":"Spain","location":{"lat":41.440908,"lng":1.864692}}
{"name":"Badajoz","containingGeoEntity":"Spain","location":{"lat":38.859946,"lng":-6.971777}}
{"name":"Mï¿½ï¿½rida","containingGeoEntity":"Spain","location":{"lat":43.442479,"lng":-103.472541}}
{"name":"Olivenza","containingGeoEntity":"Spain","location":{"lat":38.619677,"lng":-7.134134}}
{"name":"Telde","containingGeoEntity":"Spain","location":{"lat":27.998454,"lng":-15.416676}}
{"name":"Gï¿½ldar","containingGeoEntity":"Spain","location":{"lat":45.332774,"lng":-100.123673}}
{"name":"Candelaria","containingGeoEntity":"Spain","location":{"lat":28.705481,"lng":-17.770141}}
{"name":"Alta","containingGeoEntity":"Spain","location":{"lat":38.707774,"lng":-91.15156}}
{"name":"Arona","containingGeoEntity":"Spain","location":{"lat":28.099625,"lng":-16.68091}}
{"name":"Mondragï¿½ï¿½n","containingGeoEntity":"Spain","location":{"lat":45.785987,"lng":-97.590376}}
{"name":"Ermua","containingGeoEntity":"Spain","location":{"lat":43.186588,"lng":-2.502159}}
{"name":"Girona","containingGeoEntity":"Spain","location":{"lat":41.979301,"lng":2.819944}}
{"name":"Sant Bartomeu del Grau","containingGeoEntity":"Spain","location":{"lat":41.980766,"lng":2.175039}}
{"name":"Olula del Rio","containingGeoEntity":"Spain","location":{"lat":37.355269,"lng":-2.296593}}
{"name":"Garrucha","containingGeoEntity":"Spain","location":{"lat":37.180459,"lng":-1.822669}}
{"name":"Almerï¿½a","containingGeoEntity":"Spain","location":{"lat":37.619024,"lng":-77.507231}}
{"name":"Vera","containingGeoEntity":"Spain","location":{"lat":43.284216,"lng":-1.671343}}
{"name":"Huercal de Almeria","containingGeoEntity":"Spain","location":{"lat":36.883609,"lng":-2.439861}}
{"name":"Nijar","containingGeoEntity":"Spain","location":{"lat":36.965624,"lng":-2.207718}}
{"name":"El Ejido","containingGeoEntity":"Spain","location":{"lat":36.775343,"lng":-2.816823}}
{"name":"Albox","containingGeoEntity":"Spain","location":{"lat":37.388881,"lng":-2.146301}}
{"name":"Los Gallardos","containingGeoEntity":"Spain","location":{"lat":37.167419,"lng":-1.939513}}
{"name":"Cuevas del Almanzora","containingGeoEntity":"Spain","location":{"lat":37.296137,"lng":-1.880722}}
{"name":"Viator","containingGeoEntity":"Spain","location":{"lat":36.888728,"lng":-2.425125}}
{"name":"Aguadulce","containingGeoEntity":"Spain","location":{"lat":37.25302,"lng":-4.990617}}
{"name":"Roquetas de Mar","containingGeoEntity":"Spain","location":{"lat":36.76302,"lng":-2.611589}}
{"name":"Tijola","containingGeoEntity":"Spain","location":{"lat":37.350948,"lng":-2.433987}}
{"name":"Huercal Overa","containingGeoEntity":"Spain","location":{"lat":37.389896,"lng":-1.943496}}
{"name":"Arboleas","containingGeoEntity":"Spain","location":{"lat":37.351139,"lng":-2.074257}}
{"name":"Tabernas","containingGeoEntity":"Spain","location":{"lat":37.049888,"lng":-2.391377}}
{"name":"Vicar","containingGeoEntity":"Spain","location":{"lat":36.831699,"lng":-2.64303}}
{"name":"Sant Joan de Vilatorrada","containingGeoEntity":"Spain","location":{"lat":41.742207,"lng":1.803625}}
{"name":"Sitges","containingGeoEntity":"Spain","location":{"lat":41.236814,"lng":1.809415}}
{"name":"Vilanova del Camï¿½","containingGeoEntity":"Spain","location":{"lat":43.519067,"lng":-96.822865}}
{"name":"Dosrius","containingGeoEntity":"Spain","location":{"lat":41.594347,"lng":2.406317}}
{"name":"Ametlla","containingGeoEntity":"Spain","location":{"lat":44.058888,"lng":-103.09377}}
{"name":"Vallgorguina","containingGeoEntity":"Spain","location":{"lat":41.647194,"lng":2.511721}}
{"name":"Valles","containingGeoEntity":"Spain","location":{"lat":38.985825,"lng":-0.556288}}
{"name":"Vall de Almonacid","containingGeoEntity":"Spain","location":{"lat":39.903664,"lng":-0.457279}}
{"name":"Lucena del Cid","containingGeoEntity":"Spain","location":{"lat":40.137273,"lng":-0.280816}}
{"name":"Manresa","containingGeoEntity":"Spain","location":{"lat":41.728894,"lng":1.828677}}
{"name":"Roda de Bara","containingGeoEntity":"Spain","location":{"lat":41.184425,"lng":1.457938}}
{"name":"Piera","containingGeoEntity":"Spain","location":{"lat":41.521692,"lng":1.752634}}
{"name":"Olesa de Montserrat","containingGeoEntity":"Spain","location":{"lat":41.543053,"lng":1.893187}}
{"name":"Igualada","containingGeoEntity":"Spain","location":{"lat":41.578885,"lng":1.617567}}
{"name":"Sant Pere de Ribes","containingGeoEntity":"Spain","location":{"lat":41.261922,"lng":1.772136}}
{"name":"Mijas","containingGeoEntity":"Spain","location":{"lat":36.596404,"lng":-4.636415}}
{"name":"Mï¿½laga","containingGeoEntity":"Spain","location":{"lat":43.527982,"lng":-96.762777}}
{"name":"Fuengirola","containingGeoEntity":"Spain","location":{"lat":36.541358,"lng":-4.623757}}
{"name":"Huelva","containingGeoEntity":"Spain","location":{"lat":37.256667,"lng":-6.94957}}
{"name":"Mazagon","containingGeoEntity":"Spain","location":{"lat":32.579863,"lng":-97.0521}}
{"name":"Los Marines","containingGeoEntity":"Spain","location":{"lat":37.903817,"lng":-6.621194}}
{"name":"Aracena","containingGeoEntity":"Spain","location":{"lat":37.894941,"lng":-6.56245}}
{"name":"Hinojos","containingGeoEntity":"Spain","location":{"lat":37.291834,"lng":-6.378564}}
{"name":"Bonares","containingGeoEntity":"Spain","location":{"lat":37.321404,"lng":-6.683161}}
{"name":"ï¿½abeda","containingGeoEntity":"Spain","location":{"lat":43.75896,"lng":-100.801226}}
{"name":"Jaï¿½ï¿½n","containingGeoEntity":"Spain","location":{"lat":33.074515,"lng":-94.757426}}
{"name":"Alcala la Real","containingGeoEntity":"Spain","location":{"lat":37.461966,"lng":-3.92239}}
{"name":"Santiago","containingGeoEntity":"Spain","location":{"lat":43.369967,"lng":-7.744413}}
{"name":"Linares","containingGeoEntity":"Spain","location":{"lat":43.248904,"lng":-4.580865}}
{"name":"Jodar","containingGeoEntity":"Spain","location":{"lat":37.840683,"lng":-3.354869}}
{"name":"Sabiote","containingGeoEntity":"Spain","location":{"lat":38.0689,"lng":-3.311411}}
{"name":"Bilbao","containingGeoEntity":"Spain","location":{"lat":43.262964,"lng":-2.934948}}
{"name":"Guadix","containingGeoEntity":"Spain","location":{"lat":37.299552,"lng":-3.137125}}
{"name":"Oria","containingGeoEntity":"Spain","location":{"lat":37.483859,"lng":-2.29227}}
{"name":"Irun","containingGeoEntity":"Spain","location":{"lat":43.338318,"lng":-1.78881}}
{"name":"San Sebastiï¿½n de La Gomera","containingGeoEntity":"Spain","location":{"lat":28.030204,"lng":-17.194896}}
{"name":"Zumarraga","containingGeoEntity":"Spain","location":{"lat":43.089597,"lng":-2.315375}}
{"name":"San Sebastian","containingGeoEntity":"Spain","location":{"lat":43.322422,"lng":-1.983889}}
{"name":"Fuentes de Leon","containingGeoEntity":"Spain","location":{"lat":38.067867,"lng":-6.540171}}
{"name":"Burguillos del Cerro","containingGeoEntity":"Spain","location":{"lat":38.379476,"lng":-6.588581}}
{"name":"Azuaga","containingGeoEntity":"Spain","location":{"lat":38.259215,"lng":-5.676856}}
{"name":"San Cristï¿½ï¿½bal de La Laguna","containingGeoEntity":"Spain","location":{"lat":28.218457,"lng":-16.473319}}
{"name":"Santa Cruz de Tenerife","containingGeoEntity":"Spain","location":{"lat":28.459782,"lng":-16.253638}}
{"name":"La Orotava","containingGeoEntity":"Spain","location":{"lat":28.389883,"lng":-16.523569}}
{"name":"La Higuerita","containingGeoEntity":"Spain","location":{"lat":44.063201,"lng":-103.397176}}
{"name":"Playa","containingGeoEntity":"Spain","location":{"lat":35.308941,"lng":-119.009073}}
{"name":"Adeje","containingGeoEntity":"Spain","location":{"lat":28.121942,"lng":-16.724189}}
{"name":"Sabadell","containingGeoEntity":"Spain","location":{"lat":41.546421,"lng":2.108794}}
{"name":"Marbella","containingGeoEntity":"Spain","location":{"lat":36.510908,"lng":-4.880844}}
{"name":"Torremolinos","containingGeoEntity":"Spain","location":{"lat":36.624537,"lng":-4.499635}}
{"name":"Antequera","containingGeoEntity":"Spain","location":{"lat":37.018365,"lng":-4.559665}}
{"name":"El Moral","containingGeoEntity":"Spain","location":{"lat":35.072831,"lng":-96.932759}}
{"name":"Rincon de la Victoria","containingGeoEntity":"Spain","location":{"lat":36.716211,"lng":-4.279377}}
{"name":"Logroï¿½ï¿½o","containingGeoEntity":"Spain","location":{"lat":45.72424,"lng":-97.411445}}
{"name":"Valle","containingGeoEntity":"Spain","location":{"lat":43.206482,"lng":-4.305068}}
{"name":"Las Navas del Marques","containingGeoEntity":"Spain","location":{"lat":40.6038,"lng":-4.327896}}
{"name":"Matarï¿½ï¿½","containingGeoEntity":"Spain","location":{"lat":44.034269,"lng":-103.538873}}
{"name":"Taradell","containingGeoEntity":"Spain","location":{"lat":41.876262,"lng":2.285951}}
{"name":"Rupit","containingGeoEntity":"Spain","location":{"lat":42.022053,"lng":2.475289}}
{"name":"Canovelles","containingGeoEntity":"Spain","location":{"lat":41.617395,"lng":2.28288}}
{"name":"Tacoronte","containingGeoEntity":"Spain","location":{"lat":28.480532,"lng":-16.413761}}
{"name":"Granadilla de Abona","containingGeoEntity":"Spain","location":{"lat":28.122141,"lng":-16.576673}}
{"name":"La Vera","containingGeoEntity":"Spain","location":{"lat":40.04284,"lng":-5.748419}}
{"name":"Santa Cruz de La Palma","containingGeoEntity":"Spain","location":{"lat":28.68189,"lng":-17.766335}}
{"name":"Santa ï¿½arsula","containingGeoEntity":"Spain","location":{"lat":43.485321,"lng":-96.71017}}
{"name":"Puerto de la Cruz","containingGeoEntity":"Spain","location":{"lat":28.415902,"lng":-16.553296}}
{"name":"Icod de los Vinos","containingGeoEntity":"Spain","location":{"lat":28.368055,"lng":-16.717639}}
{"name":"La Victoria de Acentejo","containingGeoEntity":"Spain","location":{"lat":28.434786,"lng":-16.468175}}
{"name":"San Isidro","containingGeoEntity":"Spain","location":{"lat":40.417564,"lng":-3.375533}}
{"name":"Tigaiga","containingGeoEntity":"Spain","location":{"lat":44.179323,"lng":-99.87832}}
{"name":"Valverde","containingGeoEntity":"Spain","location":{"lat":27.809685,"lng":-17.915147}}
{"name":"Tegueste","containingGeoEntity":"Spain","location":{"lat":28.523261,"lng":-16.340764}}
{"name":"Los Cristianos","containingGeoEntity":"Spain","location":{"lat":45.194726,"lng":-99.469417}}
{"name":"Zamora","containingGeoEntity":"Spain","location":{"lat":41.505657,"lng":-5.744804}}
{"name":"Corrales","containingGeoEntity":"Spain","location":{"lat":41.325308,"lng":-5.731138}}
{"name":"Seville","containingGeoEntity":"Spain","location":{"lat":37.38863,"lng":-5.995317}}
{"name":"Cï¿½ceres","containingGeoEntity":"Spain","location":{"lat":44.578832,"lng":-96.902255}}
{"name":"Santa Maria de Corcï¿½ï¿½","containingGeoEntity":"Spain","location":{"lat":26.313394,"lng":-98.199512}}
{"name":"Valldoreix","containingGeoEntity":"Spain","location":{"lat":43.759585,"lng":-96.733724}}
{"name":"Tortosa","containingGeoEntity":"Spain","location":{"lat":40.81119,"lng":0.520749}}
{"name":"Malgrat de Mar","containingGeoEntity":"Spain","location":{"lat":41.645912,"lng":2.741405}}
{"name":"Villena","containingGeoEntity":"Spain","location":{"lat":38.633659,"lng":-0.861313}}
{"name":"Vilassar de Mar","containingGeoEntity":"Spain","location":{"lat":41.506404,"lng":2.391388}}
{"name":"Algete","containingGeoEntity":"Spain","location":{"lat":33.49165,"lng":-117.103773}}
{"name":"El Astillero","containingGeoEntity":"Spain","location":{"lat":43.399573,"lng":-3.81734}}
{"name":"Lucena","containingGeoEntity":"Spain","location":{"lat":37.409133,"lng":-4.486013}}
{"name":"Puebla de Alfinden","containingGeoEntity":"Spain","location":{"lat":43.517419,"lng":-96.913511}}
{"name":"Loeches","containingGeoEntity":"Spain","location":{"lat":40.383598,"lng":-3.409176}}
{"name":"Mollet del Vallï¿½ï¿½s","containingGeoEntity":"Spain","location":{"lat":43.808561,"lng":-96.71294}}
{"name":"Algeciras","containingGeoEntity":"Spain","location":{"lat":36.13108,"lng":-5.448706}}
{"name":"Azuqueca de Henares","containingGeoEntity":"Spain","location":{"lat":40.568426,"lng":-3.262159}}
{"name":"La Alameda de la Sagra","containingGeoEntity":"Spain","location":{"lat":40.007871,"lng":-3.802696}}
{"name":"Creixell","containingGeoEntity":"Spain","location":{"lat":41.164101,"lng":1.436033}}
{"name":"Fuentelapena","containingGeoEntity":"Spain","location":{"lat":41.253233,"lng":-5.381696}}
{"name":"Torroella de Montgri","containingGeoEntity":"Spain","location":{"lat":42.040982,"lng":3.126204}}
{"name":"Mahon","containingGeoEntity":"Spain","location":{"lat":39.889433,"lng":4.264729}}
{"name":"Tona","containingGeoEntity":"Spain","location":{"lat":41.853804,"lng":2.228012}}
{"name":"Artes","containingGeoEntity":"Spain","location":{"lat":41.798674,"lng":1.954886}}
{"name":"Torellï¿½ï¿½","containingGeoEntity":"Spain","location":{"lat":45.826737,"lng":-97.580496}}
{"name":"Vic","containingGeoEntity":"Spain","location":{"lat":41.929242,"lng":2.254865}}
{"name":"San Juan","containingGeoEntity":"Spain","location":{"lat":43.024152,"lng":-2.688883}}
{"name":"Mojacar Pueblo","containingGeoEntity":"Spain","location":{"lat":35.30838,"lng":-119.007924}}
{"name":"Castellï¿½ï¿½n de la Plana","containingGeoEntity":"Spain","location":{"lat":38.428913,"lng":-122.694363}}
{"name":"Cuevas de Vinroma","containingGeoEntity":"Spain","location":{"lat":40.310827,"lng":0.121183}}
{"name":"Cadiz","containingGeoEntity":"Spain","location":{"lat":36.521647,"lng":-6.282601}}
{"name":"Cordova","containingGeoEntity":"Spain","location":{"lat":37.884487,"lng":-4.779502}}
{"name":"Segura","containingGeoEntity":"Spain","location":{"lat":43.009086,"lng":-2.252792}}
{"name":"Villanueva del Arzobispo","containingGeoEntity":"Spain","location":{"lat":38.168886,"lng":-3.007771}}
{"name":"Alginet","containingGeoEntity":"Spain","location":{"lat":39.265113,"lng":-0.471691}}
{"name":"Santa Pola","containingGeoEntity":"Spain","location":{"lat":38.192623,"lng":-0.555911}}
{"name":"San Julian de Muskiz","containingGeoEntity":"Spain","location":{"lat":43.333123,"lng":-3.113075}}
{"name":"Betera","containingGeoEntity":"Spain","location":{"lat":39.592201,"lng":-0.462482}}
{"name":"Morï¿½ï¿½n de la Frontera","containingGeoEntity":"Spain","location":{"lat":36.686562,"lng":-6.137173}}
{"name":"Poboa de San Xulian","containingGeoEntity":"Spain","location":{"lat":42.868161,"lng":-7.446424}}
{"name":"Marchena","containingGeoEntity":"Spain","location":{"lat":37.665118,"lng":-1.653938}}
{"name":"ï¿½ï¿½guilas","containingGeoEntity":"Spain","location":{"lat":42.275077,"lng":-85.234082}}
{"name":"La Puebla de Cazalla","containingGeoEntity":"Spain","location":{"lat":37.221997,"lng":-5.311967}}
{"name":"Alicante","containingGeoEntity":"Spain","location":{"lat":38.353738,"lng":-0.490185}}
{"name":"Granada","containingGeoEntity":"Spain","location":{"lat":37.18302,"lng":-3.602192}}
{"name":"Lugo","containingGeoEntity":"Spain","location":{"lat":43.010609,"lng":-7.556567}}
{"name":"Amorebieta","containingGeoEntity":"Spain","location":{"lat":43.220176,"lng":-2.732315}}
{"name":"Tortella","containingGeoEntity":"Spain","location":{"lat":42.233331,"lng":2.630869}}
{"name":"Vï¿½ï¿½lez-Mï¿½laga","containingGeoEntity":"Spain","location":{"lat":45.64568,"lng":-97.639088}}
{"name":"Corchuela","containingGeoEntity":"Spain","location":{"lat":45.883385,"lng":-97.712849}}
{"name":"Onda","containingGeoEntity":"Spain","location":{"lat":39.962151,"lng":-0.259385}}
{"name":"Chiva","containingGeoEntity":"Spain","location":{"lat":39.47138,"lng":-0.719709}}
{"name":"Beniparrell","containingGeoEntity":"Spain","location":{"lat":39.381959,"lng":-0.412104}}
{"name":"Almenara","containingGeoEntity":"Spain","location":{"lat":39.752123,"lng":-0.225129}}
{"name":"Brenes","containingGeoEntity":"Spain","location":{"lat":37.549487,"lng":-5.872405}}
{"name":"Jerez de la Frontera","containingGeoEntity":"Spain","location":{"lat":36.682961,"lng":-6.125862}}
{"name":"Los Barrios","containingGeoEntity":"Spain","location":{"lat":36.183431,"lng":-5.49281}}
{"name":"Alsasua ï¿½ï¿½\u001c Altsasu","containingGeoEntity":"Spain","location":{"lat":42.905938,"lng":-2.180746}}
{"name":"Orcoyen","containingGeoEntity":"Spain","location":{"lat":42.82349,"lng":-1.702268}}
{"name":"Santander","containingGeoEntity":"Spain","location":{"lat":43.46231,"lng":-3.810107}}
{"name":"Manzanares","containingGeoEntity":"Spain","location":{"lat":38.996507,"lng":-3.371946}}
{"name":"Castro Urdiales","containingGeoEntity":"Spain","location":{"lat":43.384335,"lng":-3.216258}}
{"name":"Santa Eulalia Bajera","containingGeoEntity":"Spain","location":{"lat":42.209734,"lng":-2.191279}}
{"name":"Villanueva de Villaescusa","containingGeoEntity":"Spain","location":{"lat":43.367086,"lng":-3.861367}}
{"name":"Ribadeo","containingGeoEntity":"Spain","location":{"lat":43.539216,"lng":-7.041811}}
{"name":"Jijona","containingGeoEntity":"Spain","location":{"lat":38.53941,"lng":-0.507892}}
{"name":"Elche","containingGeoEntity":"Spain","location":{"lat":38.265318,"lng":-0.698849}}
{"name":"Errenteria","containingGeoEntity":"Spain","location":{"lat":43.312527,"lng":-1.898613}}
{"name":"Zaragoza","containingGeoEntity":"Spain","location":{"lat":41.652134,"lng":-0.880943}}
{"name":"Tolosa","containingGeoEntity":"Spain","location":{"lat":43.13861,"lng":-2.072356}}
{"name":"Valladolid","containingGeoEntity":"Spain","location":{"lat":41.652133,"lng":-4.728562}}
{"name":"Santa Lucia","containingGeoEntity":"Spain","location":{"lat":43.066161,"lng":-2.277334}}
{"name":"Moana","containingGeoEntity":"Spain","location":{"lat":42.281655,"lng":-8.735687}}
{"name":"Leï¿½ï¿½n","containingGeoEntity":"Spain","location":{"lat":35.031962,"lng":-81.902009}}
{"name":"Vitoria-Gasteiz","containingGeoEntity":"Spain","location":{"lat":42.846345,"lng":-2.672515}}
{"name":"Zafra","containingGeoEntity":"Spain","location":{"lat":38.425347,"lng":-6.419301}}
{"name":"La Red de Valdetuejar","containingGeoEntity":"Spain","location":{"lat":44.527659,"lng":-104.005451}}
{"name":"Mairena del Aljarafe","containingGeoEntity":"Spain","location":{"lat":37.344491,"lng":-6.060677}}
{"name":"Pedreguer","containingGeoEntity":"Spain","location":{"lat":38.793844,"lng":0.034334}}
{"name":"Trujillo","containingGeoEntity":"Spain","location":{"lat":39.46053,"lng":-5.881392}}
{"name":"Los Alcazares","containingGeoEntity":"Spain","location":{"lat":37.747928,"lng":-0.852741}}
{"name":"Pilar de la Horadada","containingGeoEntity":"Spain","location":{"lat":37.867549,"lng":-0.792567}}
{"name":"Almoradi","containingGeoEntity":"Spain","location":{"lat":38.109654,"lng":-0.791926}}
{"name":"Hortichuela","containingGeoEntity":"Spain","location":{"lat":43.17104,"lng":-101.728404}}
{"name":"Puerto Real","containingGeoEntity":"Spain","location":{"lat":36.528686,"lng":-6.190216}}
{"name":"Cartama","containingGeoEntity":"Spain","location":{"lat":36.711252,"lng":-4.630572}}
{"name":"Cullera","containingGeoEntity":"Spain","location":{"lat":39.165986,"lng":-0.252669}}
{"name":"Guadalajara","containingGeoEntity":"Spain","location":{"lat":40.633028,"lng":-3.164721}}
{"name":"Esquivias","containingGeoEntity":"Spain","location":{"lat":40.104068,"lng":-3.76748}}
{"name":"Cervera","containingGeoEntity":"Spain","location":{"lat":41.673067,"lng":1.272943}}
{"name":"La Pobla de Lillet","containingGeoEntity":"Spain","location":{"lat":42.243738,"lng":1.974933}}
{"name":"Ourense","containingGeoEntity":"Spain","location":{"lat":42.343642,"lng":-7.867424}}
{"name":"Roldan","containingGeoEntity":"Spain","location":{"lat":37.797675,"lng":-1.006511}}
{"name":"Torre-Pacheco","containingGeoEntity":"Spain","location":{"lat":37.743133,"lng":-0.953902}}
{"name":"San Pedro del Pinatar","containingGeoEntity":"Spain","location":{"lat":37.835333,"lng":-0.791612}}
{"name":"Torrevieja","containingGeoEntity":"Spain","location":{"lat":37.977719,"lng":-0.683278}}
{"name":"San Miguel","containingGeoEntity":"Spain","location":{"lat":42.666865,"lng":-7.872301}}
{"name":"Real","containingGeoEntity":"Spain","location":{"lat":39.334285,"lng":-0.608392}}
{"name":"Acala del Rio","containingGeoEntity":"Spain","location":{"lat":16.550377,"lng":-92.800826}}
{"name":"Vigo","containingGeoEntity":"Spain","location":{"lat":42.23766,"lng":-8.724721}}
{"name":"Pontevedra","containingGeoEntity":"Spain","location":{"lat":42.431888,"lng":-8.643159}}
{"name":"Cangas do Morrazo","containingGeoEntity":"Spain","location":{"lat":42.264724,"lng":-8.779649}}
{"name":"Nigran","containingGeoEntity":"Spain","location":{"lat":42.140545,"lng":-8.807082}}
{"name":"Valdemorillo","containingGeoEntity":"Spain","location":{"lat":40.501677,"lng":-4.068888}}
{"name":"San Fernando de Henares","containingGeoEntity":"Spain","location":{"lat":40.424855,"lng":-3.535037}}
{"name":"El Escorial","containingGeoEntity":"Spain","location":{"lat":40.583641,"lng":-4.128143}}
{"name":"Segovia","containingGeoEntity":"Spain","location":{"lat":40.950216,"lng":-4.124149}}
{"name":"Llosa de Ranes","containingGeoEntity":"Spain","location":{"lat":39.018876,"lng":-0.533191}}
{"name":"La Guancha","containingGeoEntity":"Spain","location":{"lat":28.373833,"lng":-16.651576}}
{"name":"Pamplona","containingGeoEntity":"Spain","location":{"lat":42.81855,"lng":-1.644417}}
{"name":"Estella-Lizarra","containingGeoEntity":"Spain","location":{"lat":42.672094,"lng":-2.031483}}
{"name":"Atarrabia","containingGeoEntity":"Spain","location":{"lat":42.831898,"lng":-1.607129}}
{"name":"Berriozar","containingGeoEntity":"Spain","location":{"lat":42.83565,"lng":-1.674572}}
{"name":"Baranain","containingGeoEntity":"Spain","location":{"lat":42.804834,"lng":-1.68102}}
{"name":"Tudela","containingGeoEntity":"Spain","location":{"lat":42.06392,"lng":-1.605192}}
{"name":"Burlata","containingGeoEntity":"Spain","location":{"lat":42.823099,"lng":-1.614083}}
{"name":"A Coruï¿½ï¿½a","containingGeoEntity":"Spain","location":{"lat":40.002093,"lng":-97.875287}}
{"name":"Ferrol","containingGeoEntity":"Spain","location":{"lat":43.484686,"lng":-8.233162}}
{"name":"Narï¿½ï¿½n","containingGeoEntity":"Spain","location":{"lat":44.715616,"lng":-103.428795}}
{"name":"Sada","containingGeoEntity":"Spain","location":{"lat":42.587178,"lng":-1.398306}}
{"name":"Ames","containingGeoEntity":"Spain","location":{"lat":42.860492,"lng":-8.651868}}
{"name":"Fene","containingGeoEntity":"Spain","location":{"lat":43.473536,"lng":-8.163086}}
{"name":"Verin","containingGeoEntity":"Spain","location":{"lat":41.940609,"lng":-7.440603}}
{"name":"Palencia","containingGeoEntity":"Spain","location":{"lat":42.010814,"lng":-4.532785}}
{"name":"Villamuriel de Cerrato","containingGeoEntity":"Spain","location":{"lat":41.950049,"lng":-4.515539}}
{"name":"Viveiro","containingGeoEntity":"Spain","location":{"lat":43.662188,"lng":-7.594983}}
{"name":"Vivero","containingGeoEntity":"Spain","location":{"lat":43.662188,"lng":-7.594983}}
{"name":"Toro","containingGeoEntity":"Spain","location":{"lat":41.521554,"lng":-5.393904}}
{"name":"Parets del Vallï¿½ï¿½s","containingGeoEntity":"Spain","location":{"lat":43.808561,"lng":-96.71294}}
{"name":"la Garriga","containingGeoEntity":"Spain","location":{"lat":41.684911,"lng":2.28658}}
{"name":"Cardedeu","containingGeoEntity":"Spain","location":{"lat":41.638517,"lng":2.355841}}
{"name":"Polinya","containingGeoEntity":"Spain","location":{"lat":41.558166,"lng":2.158457}}
{"name":"Palafolls","containingGeoEntity":"Spain","location":{"lat":41.667391,"lng":2.749926}}
{"name":"Pineda de Mar","containingGeoEntity":"Spain","location":{"lat":41.62762,"lng":2.689763}}
{"name":"Santa Coloma de Cervellï¿½ï¿½","containingGeoEntity":"Spain","location":{"lat":43.485321,"lng":-96.71017}}
{"name":"Calella","containingGeoEntity":"Spain","location":{"lat":41.613293,"lng":2.65761}}
{"name":"Castellar del Valles","containingGeoEntity":"Spain","location":{"lat":41.613812,"lng":2.087596}}
{"name":"Ibiza","containingGeoEntity":"Spain","location":{"lat":38.97432,"lng":1.419709}}
{"name":"Santa Eulï¿½ ria des Riu","containingGeoEntity":"Spain","location":{"lat":43.485321,"lng":-96.71017}}
{"name":"Moratalla","containingGeoEntity":"Spain","location":{"lat":38.188498,"lng":-1.890918}}
{"name":"Totana","containingGeoEntity":"Spain","location":{"lat":37.771002,"lng":-1.500162}}
{"name":"Las Torres de Cotillas","containingGeoEntity":"Spain","location":{"lat":38.031269,"lng":-1.241643}}
{"name":"Cieza","containingGeoEntity":"Spain","location":{"lat":38.239123,"lng":-1.418973}}
{"name":"Palma de Mallorca","containingGeoEntity":"Spain","location":{"lat":39.58111,"lng":2.709303}}
{"name":"Capdepera","containingGeoEntity":"Spain","location":{"lat":39.701281,"lng":3.428926}}
{"name":"Inca","containingGeoEntity":"Spain","location":{"lat":39.721145,"lng":2.911149}}
{"name":"Pollenï¿½ï¿½a","containingGeoEntity":"Spain","location":{"lat":33.73302,"lng":-117.780969}}
{"name":"Marratxï¿½","containingGeoEntity":"Spain","location":{"lat":30.003263,"lng":-95.612336}}
{"name":"Premia de Mar","containingGeoEntity":"Spain","location":{"lat":41.492682,"lng":2.360585}}
{"name":"Vilanova de Segriï¿½","containingGeoEntity":"Spain","location":{"lat":43.519067,"lng":-96.822865}}
{"name":"Moia","containingGeoEntity":"Spain","location":{"lat":41.813097,"lng":2.097128}}
{"name":"Ripoll","containingGeoEntity":"Spain","location":{"lat":42.198239,"lng":2.19325}}
{"name":"Plegamans","containingGeoEntity":"Spain","location":{"lat":45.884701,"lng":-97.713044}}
{"name":"Manlleu","containingGeoEntity":"Spain","location":{"lat":41.999981,"lng":2.284116}}
{"name":"Alboraya","containingGeoEntity":"Spain","location":{"lat":39.500995,"lng":-0.34948}}
{"name":"Sagunto","containingGeoEntity":"Spain","location":{"lat":39.679171,"lng":-0.277415}}
{"name":"Paterna","containingGeoEntity":"Spain","location":{"lat":39.503923,"lng":-0.442101}}
{"name":"Torrent","containingGeoEntity":"Spain","location":{"lat":39.436535,"lng":-0.4679}}
{"name":"Benisano","containingGeoEntity":"Spain","location":{"lat":39.613308,"lng":-0.57529}}
{"name":"San Antonio","containingGeoEntity":"Spain","location":{"lat":38.979844,"lng":1.305123}}
{"name":"Gandia","containingGeoEntity":"Spain","location":{"lat":38.967593,"lng":-0.180342}}
{"name":"La Seca","containingGeoEntity":"Spain","location":{"lat":41.414377,"lng":-4.907025}}
{"name":"Molina de Segura","containingGeoEntity":"Spain","location":{"lat":38.054758,"lng":-1.212489}}
{"name":"Alcantarilla","containingGeoEntity":"Spain","location":{"lat":37.967475,"lng":-1.214985}}
{"name":"La Uniï¿½ï¿½n","containingGeoEntity":"Spain","location":{"lat":44.006234,"lng":-97.245631}}
{"name":"Jabali Nuevo","containingGeoEntity":"Spain","location":{"lat":34.626556,"lng":-92.93533}}
{"name":"Ceuti","containingGeoEntity":"Spain","location":{"lat":38.077695,"lng":-1.27413}}
{"name":"Los Garres","containingGeoEntity":"Spain","location":{"lat":44.064598,"lng":-103.17229}}
{"name":"Alcoy","containingGeoEntity":"Spain","location":{"lat":38.698228,"lng":-0.474777}}
{"name":"Villanueva de Castellon","containingGeoEntity":"Spain","location":{"lat":39.074942,"lng":-0.518134}}
{"name":"Alfafar","containingGeoEntity":"Spain","location":{"lat":39.420075,"lng":-0.389136}}
{"name":"Corbera de Llobregat","containingGeoEntity":"Spain","location":{"lat":41.416617,"lng":1.933864}}
{"name":"Vilanova i la Geltrï¿½ï¿½","containingGeoEntity":"Spain","location":{"lat":43.519067,"lng":-96.822865}}
{"name":"Molins de Rei","containingGeoEntity":"Spain","location":{"lat":41.413809,"lng":2.015963}}
{"name":"Cabrils","containingGeoEntity":"Spain","location":{"lat":41.526235,"lng":2.367626}}
{"name":"Torrelles de Llobregat","containingGeoEntity":"Spain","location":{"lat":41.356523,"lng":1.981628}}
{"name":"Calafell","containingGeoEntity":"Spain","location":{"lat":41.201464,"lng":1.568032}}
{"name":"Castellet","containingGeoEntity":"Spain","location":{"lat":41.263883,"lng":1.634724}}
{"name":"Sant Vicenc de Castellet","containingGeoEntity":"Spain","location":{"lat":41.667,"lng":1.862556}}
{"name":"Terrassa","containingGeoEntity":"Spain","location":{"lat":41.56973,"lng":2.013207}}
{"name":"Montmelï¿½ï¿½","containingGeoEntity":"Spain","location":{"lat":44.065769,"lng":-103.25591}}
{"name":"Abrera","containingGeoEntity":"Spain","location":{"lat":41.520446,"lng":1.902413}}
{"name":"els Hostalets de Pierola","containingGeoEntity":"Spain","location":{"lat":41.534703,"lng":1.767248}}
{"name":"Silla","containingGeoEntity":"Spain","location":{"lat":39.361784,"lng":-0.410349}}
{"name":"Margarida","containingGeoEntity":"Spain","location":{"lat":42.424861,"lng":-83.301986}}
{"name":"La Llagosta","containingGeoEntity":"Spain","location":{"lat":41.513988,"lng":2.191207}}
{"name":"Martorell","containingGeoEntity":"Spain","location":{"lat":41.476918,"lng":1.928397}}
{"name":"el Masnou","containingGeoEntity":"Spain","location":{"lat":41.47969,"lng":2.311835}}
{"name":"Tiana","containingGeoEntity":"Spain","location":{"lat":41.482099,"lng":2.267977}}
{"name":"Sallent","containingGeoEntity":"Spain","location":{"lat":41.825907,"lng":1.894876}}
{"name":"Santa Perpetua de Mogoda","containingGeoEntity":"Spain","location":{"lat":41.532811,"lng":2.182331}}
{"name":"Santa Margarida","containingGeoEntity":"Spain","location":{"lat":43.485321,"lng":-96.71017}}
{"name":"Montseny","containingGeoEntity":"Spain","location":{"lat":41.75937,"lng":2.395206}}
{"name":"Port de Sagunt","containingGeoEntity":"Spain","location":{"lat":39.660193,"lng":-0.22683}}
{"name":"Palmera","containingGeoEntity":"Spain","location":{"lat":38.941512,"lng":-0.153227}}
{"name":"Bormujos","containingGeoEntity":"Spain","location":{"lat":37.371594,"lng":-6.07133}}
{"name":"Bollullos de la Mitacion","containingGeoEntity":"Spain","location":{"lat":37.3399,"lng":-6.137682}}
{"name":"Salamanca","containingGeoEntity":"Spain","location":{"lat":40.965157,"lng":-5.664018}}
{"name":"San Javier","containingGeoEntity":"Spain","location":{"lat":37.80366,"lng":-0.834285}}
{"name":"Anora","containingGeoEntity":"Spain","location":{"lat":38.412356,"lng":-4.897632}}
{"name":"Penarroya-Pueblonuevo","containingGeoEntity":"Spain","location":{"lat":38.302618,"lng":-5.271483}}
{"name":"Galvez","containingGeoEntity":"Spain","location":{"lat":39.700269,"lng":-4.272296}}
{"name":"Muro del Alcoy","containingGeoEntity":"Spain","location":{"lat":38.777078,"lng":-0.436111}}
{"name":"La Llacuna","containingGeoEntity":"Spain","location":{"lat":41.472981,"lng":1.534607}}
{"name":"Los Palacios y Villafranca","containingGeoEntity":"Spain","location":{"lat":37.163591,"lng":-5.926685}}
{"name":"Capellades","containingGeoEntity":"Spain","location":{"lat":41.53,"lng":1.684787}}
{"name":"Iznate","containingGeoEntity":"Spain","location":{"lat":36.775802,"lng":-4.185143}}
{"name":"Nerva","containingGeoEntity":"Spain","location":{"lat":37.695518,"lng":-6.548932}}
{"name":"La Galera","containingGeoEntity":"Spain","location":{"lat":40.682393,"lng":0.463703}}
{"name":"Hellin","containingGeoEntity":"Spain","location":{"lat":38.510665,"lng":-1.699514}}
{"name":"Baza","containingGeoEntity":"Spain","location":{"lat":37.488864,"lng":-2.770981}}
{"name":"Sayalonga","containingGeoEntity":"Spain","location":{"lat":36.798287,"lng":-4.013585}}
{"name":"Monterrubio de la Serena","containingGeoEntity":"Spain","location":{"lat":38.589345,"lng":-5.445131}}
{"name":"Urda","containingGeoEntity":"Spain","location":{"lat":39.410278,"lng":-3.716793}}
{"name":"Tomelloso","containingGeoEntity":"Spain","location":{"lat":39.159008,"lng":-3.02151}}
{"name":"Villar del Arzobispo","containingGeoEntity":"Spain","location":{"lat":39.733701,"lng":-0.827348}}
{"name":"Alzira","containingGeoEntity":"Spain","location":{"lat":39.151242,"lng":-0.434613}}
{"name":"Mislata","containingGeoEntity":"Spain","location":{"lat":39.474736,"lng":-0.416029}}
{"name":"Albolote","containingGeoEntity":"Spain","location":{"lat":37.230622,"lng":-3.657078}}
{"name":"Atarfe","containingGeoEntity":"Spain","location":{"lat":37.222721,"lng":-3.68824}}
{"name":"Dos Hermanas","containingGeoEntity":"Spain","location":{"lat":37.281271,"lng":-5.922948}}
{"name":"Oasis (La Marina)","containingGeoEntity":"Spain","location":{"lat":38.137872,"lng":-0.683744}}
{"name":"Hernani","containingGeoEntity":"Spain","location":{"lat":43.266165,"lng":-1.974917}}
{"name":"Orihuela","containingGeoEntity":"Spain","location":{"lat":38.090691,"lng":-0.946613}}
{"name":"Rojales","containingGeoEntity":"Spain","location":{"lat":38.087175,"lng":-0.722821}}
{"name":"Laredo","containingGeoEntity":"Spain","location":{"lat":43.41063,"lng":-3.4173}}
{"name":"Elexalde","containingGeoEntity":"Spain","location":{"lat":43.413907,"lng":-2.935177}}
{"name":"Pucol","containingGeoEntity":"Spain","location":{"lat":39.617223,"lng":-0.302827}}
{"name":"Rafelbunyol","containingGeoEntity":"Spain","location":{"lat":39.588463,"lng":-0.332542}}
{"name":"Blanca","containingGeoEntity":"Spain","location":{"lat":38.178946,"lng":-1.373676}}
{"name":"Archena","containingGeoEntity":"Spain","location":{"lat":38.11431,"lng":-1.298908}}
{"name":"Mondujar","containingGeoEntity":"Spain","location":{"lat":45.785987,"lng":-97.590376}}
{"name":"Benalmï¿½dena","containingGeoEntity":"Spain","location":{"lat":43.553573,"lng":-96.804287}}
{"name":"Coin","containingGeoEntity":"Spain","location":{"lat":36.658863,"lng":-4.757012}}
{"name":"Yecla","containingGeoEntity":"Spain","location":{"lat":38.613614,"lng":-1.115676}}
{"name":"Ferreries","containingGeoEntity":"Spain","location":{"lat":39.983335,"lng":4.011002}}
{"name":"Campos","containingGeoEntity":"Spain","location":{"lat":39.43131,"lng":3.019791}}
{"name":"San Juan de Moro","containingGeoEntity":"Spain","location":{"lat":40.060912,"lng":-0.13711}}
{"name":"Montellano","containingGeoEntity":"Spain","location":{"lat":36.998521,"lng":-5.535185}}
{"name":"Oliva","containingGeoEntity":"Spain","location":{"lat":38.920199,"lng":-0.120974}}
{"name":"Olvera","containingGeoEntity":"Spain","location":{"lat":36.93465,"lng":-5.259907}}
{"name":"La Roda","containingGeoEntity":"Spain","location":{"lat":39.206521,"lng":-2.158121}}
{"name":"Almagro","containingGeoEntity":"Spain","location":{"lat":38.888238,"lng":-3.711822}}
{"name":"Librilla","containingGeoEntity":"Spain","location":{"lat":37.886928,"lng":-1.354643}}
{"name":"Villaverde del Rio","containingGeoEntity":"Spain","location":{"lat":37.591905,"lng":-5.875939}}
